source;source_id;timestamp;price;total area;dorms;toilets;parking;address;lat;lng
vivareal;predio-comercial-10-quartos-pinheiros-zona-oeste-sao-paulo-com-garagem-1276m2-venda-RS27000000-id-2504799274;"2023-11-01 08:25:20.739924";27000000;1276;10.0;3.0;3.0;Rua Oscar Freire, 2372 - Pinheiros, São Paulo - SP;-23.5525461;-46.6772881
vivareal;artur-73-2655426366;"2023-11-01 08:26:14.403921";;8188;2.0;;1.0;Rua Artur de Azevedo, 73 - Pinheiros, São Paulo - SP;-23.5578801;-46.6735331
vivareal;lote-terreno-jardim-sta-fe-zona-oeste-sao-paulo-161000m2-venda-RS84042567-id-2665490403;"2023-11-01 08:26:37.943547";84042567;161000;;;;Rua Dionísio Bellante, 500 - Jardim Sta Fe , São Paulo - SP;-23.4325565;-46.7947493
vivareal;galpao-deposito-armazem-jurubatuba-zona-sul-sao-paulo-com-garagem-2194m2-venda-RS15000000-id-2577125310;"2023-11-01 08:27:31.782641";15000000;2194;;6.0;15.0;Avenida Engenheiro Eusébio Stevaux, 2496 - Jurubatuba, São Paulo - SP;-23.6805941;-46.6930971
vivareal;apartamento-3-quartos-jardim-europa-zona-oeste-sao-paulo-com-garagem-405m2-venda-RS28000000-id-2665202616;"2023-11-01 08:27:55.216031";28000000;405;3.0;;5.0;Rua Seridó - Jardim Europa, São Paulo - SP;-23.5829305;-46.6898405
vivareal;lote-terreno-parque-novo-mundo-zona-norte-sao-paulo-12035m2-venda-RS30000000-id-2495527521;"2023-11-01 08:28:18.776220";30000000;12035;;;;Rua Soldado Cristóvão Morais Garcia - Parque Novo Mundo, São Paulo - SP;-23.5162445;-46.5642456
vivareal;predio-comercial-jardim-humaita-zona-oeste-sao-paulo-com-garagem-4131m2-venda-RS35000000-id-2581799052;"2023-11-01 08:28:42.523372";35000000;4131;;20.0;130.0;Avenida Doutora Ruth Cardoso - Jardim Humaitá, São Paulo - SP;-23.5511175;-46.7241169
vivareal;predio-comercial-vila-hamburguesa-zona-oeste-sao-paulo-com-garagem-2300m2-venda-RS23980000-id-2623814452;"2023-11-01 08:29:08.161582";23980000;2300;;22.0;45.0;Avenida Queiroz Filho, 767 - Vila Hamburguesa, São Paulo - SP;-23.5385741;-46.726413
vivareal;artur-73-88m-2655426970;"2023-11-01 08:29:32.230004";;88;2.0;;1.0;Rua Artur de Azevedo, 73 - Pinheiros, São Paulo - SP;-23.5578801;-46.6735331
vivareal;lote-terreno-parque-anhanguera-zona-norte-sao-paulo-20000m2-venda-RS61999956-id-2665775710;"2023-11-01 08:29:55.858489";61999956;20000;;;0.0;Avenida Manoel Monteiro de Araújo, 01 - Parque Anhanguera, São Paulo - SP;-23.5080234;-46.7463125
vivareal;cambuci-zona-sul-sao-paulo-4314m2-venda-RS25000000-id-2635054091;"2023-11-01 08:30:19.427555";25000000;4314;;;0.0;Cambuci, São Paulo - SP;-23.5644729;-46.6211126
vivareal;apartamento-4-quartos-ibirapuera-zona-sul-sao-paulo-com-garagem-632m2-venda-RS26800000-id-2641686853;"2023-11-01 08:30:43.038163";26800000;632;4.0;;7.0;Rua do Livramento - Ibirapuera, São Paulo - SP;-23.5795335;-46.652537
vivareal;sobrado-7-quartos-jardim-cordeiro-zona-sul-sao-paulo-com-garagem-1850m2-venda-RS32000000-id-2614364218;"2023-11-01 08:31:36.834186";32000000;1850;7.0;;6.0;Avenida Professor Rubens Gomes de Souza, 305 - Jardim Cordeiro, São Paulo - SP;-23.6367211;-46.6831469
vivareal;sala-comercial-itaim-bibi-zona-sul-sao-paulo-com-garagem-592m2-venda-RS30000000-id-2660995600;"2023-11-01 08:32:00.547680";30000000;592;;;16.0;Avenida Brigadeiro Faria Lima, 4300 - Itaim Bibi, São Paulo - SP;-23.5942463;-46.6811184
vivareal;imovel-comercial-vila-mariana-zona-sul-sao-paulo-com-garagem-6243m2-venda-RS25000000-id-2664412210;"2023-11-01 08:32:54.319472";25000000;6243;;;45.0;Rua José Antônio Coelho - Vila Mariana, São Paulo - SP;-23.580497;-46.6446169
vivareal;lancamento-2-dorm-brooklin-2643146028;"2023-11-01 08:33:18.653456";;70;12.0;;0.0;Rua Enxovia, 423 - Vila Sao Francisco (Zona Sul), São Paulo - SP;-23.6280472;-46.7003678
vivareal;galpao-deposito-armazem-socorro-zona-sul-sao-paulo-com-garagem-1225m2-venda-RS17500000-id-2624674401;"2023-11-01 08:33:42.557437";17500000;1225;;2.0;7.0;Avenida do Rio Bonito - Socorro, São Paulo - SP;-23.6787036;-46.709018
vivareal;casa-5-quartos-vila-nova-conceicao-zona-sul-sao-paulo-com-garagem-750m2-venda-RS17021956-id-2665773833;"2023-11-01 08:34:06.406004";17021956;750;5.0;;6.0;Rua Bastos Pereira, 01 - Vila Nova Conceição, São Paulo - SP;-23.5869357;-46.6713657
vivareal;ponto-comercial-cerqueira-cesar-centro-sao-paulo-com-garagem-696m2-venda-RS18000000-id-90544805;"2023-11-01 08:34:33.013427";18000000;696;;;3.0;Cerqueira César, São Paulo - SP;-23.5593967;-46.6687592
vivareal;sobrado-4-quartos-caxingui-zona-oeste-sao-paulo-com-garagem-3882m2-venda-RS17000000-id-2596751479;"2023-11-01 08:35:26.832834";17000000;3882;4.0;;5.0;Avenida Morumbi - Caxingui, São Paulo - SP;-23.5993185;-46.7085286
vivareal;apartamento-3-quartos-jardim-europa-zona-oeste-sao-paulo-456m2-venda-RS27500000-id-2651681162;"2023-11-01 08:35:50.668824";27500000;456;3.0;;;Rua Frederic Chopin - Jardim Europa, São Paulo - SP;-23.5838842;-46.6881954
vivareal;apartamento-5-quartos-jardim-paulistano-zona-oeste-sao-paulo-com-garagem-826m2-venda-RS57240000-id-2612082203;"2023-11-01 08:36:14.261455";57240000;826;5.0;;9.0;Rua Professor Artur Ramos, 50 - Jardim Paulistano, São Paulo - SP;-23.5812937;-46.6849894
vivareal;arborea-itaim-2644775085;"2023-11-01 08:36:37.849274";;472;4.0;;4.0;Praça Cidade Jardim, 993 - Jardim Paulista, São Paulo - SP;-23.590576;-46.6964323
vivareal;cobertura-4-quartos-itaim-bibi-zona-sul-sao-paulo-com-garagem-741m2-venda-RS23599970-id-2662484567;"2023-11-01 08:37:01.297372";23599970;741;4.0;;9.0;Rua Camargo Cabral, 30 - Itaim Bibi, São Paulo - SP;-23.5843383;-46.686336
vivareal;apartamento-4-quartos-vila-mariana-zona-sul-sao-paulo-com-garagem-632m2-venda-RS21000000-id-2646426845;"2023-11-01 08:37:25.590214";21000000;632;4.0;;7.0;Rua do Livramento, 250 - Vila Mariana, São Paulo - SP;-23.5796228;-46.65304159999999
vivareal;ponto-comercial-jardim-america-zona-sul-sao-paulo-com-garagem-720m2-venda-RS15000000-id-2643903678;"2023-11-01 08:38:19.283176";15000000;720;;;12.0;Rua Oscar Freire, 400 - Jardim América, São Paulo - SP;-23.5661479;-46.6655407
vivareal;lote-terreno-alto-da-boa-vista-zona-sul-sao-paulo-com-garagem-1927m2-venda-RS29000000-id-2664661515;"2023-11-01 08:38:44.223771";29000000;1927;;;30.0;Avenida Adolfo Pinheiro, 893 - Alto Da Boa Vista, São Paulo - SP;-23.6450919;-46.7011174
vivareal;casa-5-quartos-santo-amaro-zona-sul-sao-paulo-com-garagem-850m2-venda-RS15500000-id-2641867780;"2023-11-01 08:39:07.842881";15500000;850;5.0;;8.0;Rua Teixeira de Freitas - Santo Amaro, São Paulo - SP;-23.651593;-46.6901915
vivareal;sobrado-3-quartos-jardim-paulista-zona-sul-sao-paulo-com-garagem-725m2-venda-RS16500000-id-2621384720;"2023-11-01 08:39:31.743397";16500000;725;3.0;;4.0;Rua Henrique Martins, 304 - Jardim Paulista, São Paulo - SP;-23.584259;-46.6656996
vivareal;heritage-itaim-bibi-2570657045;"2023-11-01 08:39:55.866678";;570;4.0;;6.0;Rua Leopoldo Couto Magalhães Júnior, 1200 - Itaim Bibi, São Paulo - SP;-23.5891211;-46.6840991
vivareal;cobertura-4-quartos-jardim-guedala-zona-sul-sao-paulo-com-garagem-1300m2-venda-RS48000000-id-2625778799;"2023-11-01 08:40:19.749739";48000000;1300;4.0;;10.0;Rua Joaquim Macedo, 135 - Jardim Guedala, São Paulo - SP;-23.5897114;-46.7031745
vivareal;apartamento-3-quartos-jardim-europa-zona-oeste-sao-paulo-com-garagem-456m2-venda-RS27500000-id-2656743980;"2023-11-01 08:40:43.373352";27500000;456;3.0;;6.0;Rua Frederic Chopin, 240 - Jardim Europa, São Paulo - SP;-23.5844856;-46.6891366
vivareal;apartamento-4-quartos-jardim-europa-zona-oeste-sao-paulo-com-garagem-350m2-venda-RS22500000-id-2665343053;"2023-11-01 08:41:07.363642";22500000;350;4.0;;5.0;Rua Tucumã - Jardim Europa, São Paulo - SP;-23.5810154;-46.6881645
vivareal;predio-comercial-bras-zona-leste-sao-paulo-com-garagem-9313m2-venda-RS27000000-id-2566678738;"2023-11-01 08:41:34.960197";27000000;9313;;6.0;72.0;Rua Doutor Virgílio do Nascimento - Brás, São Paulo - SP;-23.5300388;-46.6135745
vivareal;galpao-deposito-armazem-jardim-santa-cruz-zona-sul-sao-paulo-21160m2-venda-RS70000000-id-2631225775;"2023-11-01 08:41:58.841577";70000000;21160;;;;Jardim Santa Cruz, São Paulo - SP;-23.4612951;-46.6675163
vivareal;sala-comercial-vila-mariana-zona-sul-sao-paulo-com-garagem-873m2-venda-RS15900000-id-2655886079;"2023-11-01 08:42:22.867000";15900000;873;;10.0;18.0;Rua Vergueiro - Vila Mariana, São Paulo - SP;-23.5869609;-46.6342849
lopes;REO74359;"2023-10-23 10:07:50.841047";24000000;1150;5.0;;10.0;Rua Frei Machado - Santana - São Paulo/SP;-23.5054419;-46.6463786
lopes;REO94022;"2023-10-23 10:08:08.013364";20900000;790;4.0;5.0;6.0;Rua Hermano Ribeiro Da Silva - Ibirapuera - São Paulo/SP;-23.5810151;-46.6523026
lopes;REO31168;"2023-10-23 10:08:24.722093";32000000;1700;5.0;9.0;8.0;Rua Antônio De Andrade Rebelo - Morumbi - São Paulo/SP;-23.6193621;-46.7080443
lopes;REO86200;"2023-10-23 10:08:41.218069";15000000;508;4.0;;5.0;Rua Roberto Caldas Kerr - Alto De Pinheiros - São Paulo/SP;-23.5492086;-46.7194426
lopes;REO558708;"2023-10-23 10:08:58.274600";30000000;773;4.0;7.0;7.0;Rua Canadá - Jardim América - São Paulo/SP;-23.5729433;-46.6681172
lopes;REO573921;"2023-10-23 10:09:15.965979";15000000;650;4.0;7.0;8.0;Avenida Doutor Alberto Penteado - Cidade Jardim - São Paulo/SP;-23.5991985;-46.7031077
lopes;REO23041;"2023-10-23 10:09:33.192568";32000000;601;3.0;5.0;15.0;Rua Argentina - Jardim América - São Paulo/SP;-23.571526;-46.668903
lopes;REO124567;"2023-10-23 10:09:51.161999";15000000;750;5.0;6.0;3.0;Rua Cordeiro Galvão - Alto De Pinheiros - São Paulo/SP;-23.5482335;-46.7062784
lopes;REO90442;"2023-10-23 10:10:08.196719";45000000;1200;5.0;7.0;7.0;Rua José Maria Lisboa - Jardim América - São Paulo/SP;-23.563669;-46.6632292
lopes;REO131203;"2023-10-23 10:10:24.790944";25000000;1086;4.0;10.0;6.0;Rua Das Açucenas - Cidade Jardim - São Paulo/SP;-23.5910106;-46.7014303
lopes;REO298562;"2023-10-23 10:10:40.668434";47000000;686;6.0;6.0;6.0;Rua Espanha - Jardim Europa - São Paulo/SP;-23.5744318;-46.6753414
lopes;REO163674;"2023-10-23 10:11:00.344862";40000000;1251;6.0;10.0;13.0;Rua Jaime Costa - Morumbi - São Paulo/SP;-23.6206671;-46.7082385
lopes;REO312847;"2023-10-23 10:11:16.682723";24900000;632;4.0;6.0;7.0;Rua Do Livramento - Paraíso - São Paulo/SP;-23.5795335;-46.652537
lopes;REO312848;"2023-10-23 10:11:34.256809";26800000;632;4.0;6.0;7.0;Rua Do Livramento - Paraíso - São Paulo/SP;-23.5795335;-46.652537
lopes;REO583569;"2023-10-23 10:11:49.992257";63800000;750;4.0;5.0;6.0;Rua Escócia - Jardim Europa - São Paulo/SP;-23.5787407;-46.6835135
lopes;REO184481;"2023-10-23 10:12:06.621596";24000000;1150;5.0;11.0;10.0;Rua Frei Machado - Jardim São Bento - São Paulo/SP;-23.5054419;-46.6463786
lopes;REO18815;"2023-10-23 10:12:24.670797";32000000;601;3.0;4.0;15.0;Rua Argentina - Jardim América - São Paulo/SP;-23.571526;-46.668903
lopes;REO18653;"2023-10-23 10:12:41.392648";32000000;1880;5.0;15.0;10.0;Avenida Professor Rubens Gomes De Souza - Alto Da Boa Vista - São Paulo/SP;-23.6394751;-46.6785001
lopes;REO345763;"2023-10-23 10:12:56.880620";25000000;632;4.0;6.0;7.0;Rua Do Livramento - Paraíso - São Paulo/SP;-23.5795335;-46.652537
lopes;REO492452;"2023-10-23 10:13:13.682081";32000000;541;4.0;6.0;7.0;Rua Pirapora - Ibirapuera - São Paulo/SP;-23.5816378;-46.6519173
lopes;REO345799;"2023-10-23 10:13:29.343563";20500000;632;4.0;6.0;7.0;Rua Do Livramento - Ibirapuera - São Paulo/SP;-23.5795335;-46.652537
lopes;REO346251;"2023-10-23 10:13:45.554732";27500000;600;4.0;5.0;7.0;Rua Atlântica - Jardim América - São Paulo/SP;-23.5671068;-46.6765991
lopes;REO460114;"2023-10-23 10:14:01.970767";43545000;1202;4.0;6.0;6.0;Rua Joaquim Macedo - Cidade Jardim - São Paulo/SP;-23.5896243;-46.703516
lopes;REO47213;"2023-10-23 10:14:35.718265";16915000;628;4.0;6.0;6.0;Rua Joaquim Macedo - Cidade Jardim - São Paulo/SP;-23.5896243;-46.703516
lopes;REO16891;"2023-10-23 10:14:53.513447";26000000;1000;4.0;5.0;20.0;Rua México - Jardim América - São Paulo/SP;-23.5706558;-46.6720163
lopes;REO83254;"2023-10-23 10:15:10.976956";16000000;475;4.0;6.0;10.0;Rua Panamá - Jardim América - São Paulo/SP;-23.5691554;-46.6738926
lopes;REO14338;"2023-10-23 10:15:27.712999";30000000;850;4.0;5.0;10.0;Praça General San Martin - Jardim América - São Paulo/SP;-23.5647335;-46.6727412
lopes;REO507304;"2023-10-23 10:15:44.953637";23600000;743;4.0;6.0;9.0;Rua Camargo Cabral - Itaim Bibi - São Paulo/SP;-23.5841978;-46.6866383
lopes;REO480030;"2023-10-23 10:16:03.075751";17000000;622;4.0;7.0;8.0;Rua Curitiba - Ibirapuera - São Paulo/SP;-23.5812737;-46.6541037
lopes;REO661450;"2023-10-23 10:16:19.921037";20000000;671;3.0;6.0;6.0;Rua Sabuji - Jardim Paulistano - São Paulo/SP;-23.5828078;-46.6892095
lopes;REO610028;"2023-10-23 10:16:37.459443";28000000;750;7.0;10.0;20.0;Rua Áustria - Jardim Europa - São Paulo/SP;-23.5737733;-46.6799195
lopes;REO42349;"2023-10-23 10:16:54.936224";25000000;1900;5.0;10.0;20.0;Rua General Pereira Da Cunha - Morumbi - São Paulo/SP;-23.6208064;-46.706896
lopes;REO83212;"2023-10-23 10:17:11.252080";18000000;1650;3.0;5.0;6.0;Rua Visconde De Porto Seguro - Chácara Flora - São Paulo/SP;-23.6424647;-46.6854624
lopes;REO331591;"2023-10-23 10:17:27.936187";22000000;485;4.0;6.0;5.0;Rua Seridó - Jardim Europa - São Paulo/SP;-23.5829305;-46.6898405
lopes;REO473337;"2023-10-23 10:17:46.159929";45000000;730;4.0;7.0;6.0;Rua Guadalupe - Jardim América - São Paulo/SP;-23.5557714;-46.6395571
lopes;REO626701;"2023-10-23 10:18:02.175840";63000000;66;2.0;2.0;2.0;Rua Doutor Miranda De Azevedo - Pompéia - São Paulo/SP;-23.5308362;-46.6909294
lopes;REO459987;"2023-10-23 10:18:19.516904";25000000;914;4.0;6.0;6.0;Rua Décio Reis - Alto De Pinheiros - São Paulo/SP;-23.5522024;-46.7025003
lopes;REO55184;"2023-10-23 10:18:35.308644";23000000;1300;4.0;;20.0;Rua Francisco De Brito - Tremembé - São Paulo/SP;-23.4725808;-46.6133588
lopes;REO527376;"2023-10-23 10:18:51.525650";29000000;1333;;10.0;30.0;Avenida Brasil - Jardim América - São Paulo/SP;-23.5706274;-46.6705692
lopes;REO81971;"2023-10-23 10:19:07.233085";24800000;500;4.0;6.0;7.0;Rua Leopoldo Couto De Magalhães Júnior - Itaim Bibi - São Paulo/SP;-23.5882415;-46.680574
lopes;REO54867;"2023-10-23 10:19:23.443091";16000000;620;5.0;5.0;7.0;Rua Antilhas - Jardim América - São Paulo/SP;-23.5667499;-46.6710167
lopes;REO388327;"2023-10-23 10:19:42.390089";35000000;405;3.0;5.0;5.0;Rua Seridó - Jardim Europa - São Paulo/SP;-23.5829305;-46.6898405
lopes;REO514473;"2023-10-23 10:20:00.814573";25000000;680;4.0;8.0;8.0;Rua Turquia - Jardim Europa - São Paulo/SP;-23.5775695;-46.6799115
lopes;REO370938;"2023-10-23 10:20:17.567707";22605560;585;4.0;1.0;5.0;Alameda Lorena - Jardim América - São Paulo/SP;-23.5639007;-46.6658854
lopes;REO103236;"2023-10-23 10:20:39.048910";17000000;960;5.0;7.0;4.0;Rua Barão De Capanema - Jardim América - São Paulo/SP;-23.567898;-46.665507
lopes;REO564162;"2023-10-23 10:20:57.762339";23500000;700;4.0;6.0;6.0;Rua Barão De Bocaina - Higienópolis - São Paulo/SP;-23.5437643;-46.6636781
lopes;REO315281;"2023-10-23 10:21:36.916768";18000000;598;4.0;5.0;4.0;Rua Atlântica - Jardim América - São Paulo/SP;-23.5671068;-46.6765991
lopes;REO136178;"2023-10-23 10:21:54.530927";15000000;853;4.0;7.0;5.0;Rua Desembargador Amorim Lima - Morumbi - São Paulo/SP;-23.5903063;-46.714145
lopes;REO42559;"2023-10-23 10:22:12.246085";16000000;720;5.0;6.0;8.0;Rua Holanda - Jardim Europa - São Paulo/SP;-23.5751332;-46.6736003
lopes;REO616596;"2023-10-23 10:22:32.850737";45000000;985;5.0;8.0;8.0;Rua Guadelupe - Jardim América - São Paulo/SP;-23.5666211;-46.6747302
lopes;REO616292;"2023-10-23 10:22:52.386166";45000000;985;5.0;8.0;8.0;Rua Guadelupe - Jardim América - São Paulo/SP;-23.5666211;-46.6747302
lopes;REO254993;"2023-10-23 10:23:10.268103";22000000;889;4.0;7.0;6.0;Rua Ubiracica - City Pinheiros - São Paulo/SP;-23.5398243;-46.7244512
lopes;REO348599;"2023-10-23 10:23:29.577613";19000000;442;4.0;7.0;4.0;Rua Portugal - Jardim Europa - São Paulo/SP;-23.5754896;-46.6749907
lopes;REO355955;"2023-10-23 10:23:48.072466";15000000;1050;6.0;6.0;10.0;Rua Domingos Leme - Vila Nova Conceição - São Paulo/SP;-23.5916256;-46.6700153
lopes;REO52604;"2023-10-23 10:24:06.171104";63900000;2300;4.0;10.0;20.0;Nicolau Scarpa - Jardim América - São Paulo/SP;-23.5703228;-46.664414
lopes;REO144790;"2023-10-23 10:24:29.145292";40000000;1100;4.0;12.0;7.0;Rua Dom Henrique - Jardim Luzitânia - São Paulo/SP;-23.5950267;-46.6587465
lopes;REO483183;"2023-10-23 10:24:50.509663";18000000;650;4.0;7.0;8.0;Rua Comandante Ismael Guilherme - Jardim Luzitânia - São Paulo/SP;-23.5947294;-46.6599441
lopes;REO3989;"2023-10-23 10:25:09.309494";15800000;522;4.0;7.0;8.0;Rua Doutor Eduardo De Souza Aranha - Itaim Bibi - São Paulo/SP;-23.5883013;-46.6733357
lopes;REO73227;"2023-10-23 10:25:28.165401";16000000;496;4.0;7.0;6.0;Rua Traipu - Pacaembú - São Paulo/SP;-23.5374935;-46.6647178
lopes;REO165443;"2023-10-23 10:25:46.086368";20000000;550;4.0;8.0;4.0;Rua Escócia - Jardim Europa - São Paulo/SP;-23.5787407;-46.6835135
lopes;REO99124;"2023-10-23 10:26:03.693944";39000000;568;;8.0;40.0;Avenida Brasil - Jardim América - São Paulo/SP;-23.5706274;-46.6705692
lopes;REO603242;"2023-10-23 10:26:22.506706";50000000;985;5.0;8.0;8.0;Rua Atlântica - Jardim América - São Paulo/SP;-23.5671068;-46.6765991
lopes;REO404908;"2023-10-23 10:26:40.846745";15000000;550;4.0;8.0;6.0;Alameda Casa Branca - Jardim Paulista - São Paulo/SP;-23.5661707;-46.6601168
lopes;REO459039;"2023-10-23 10:26:58.853004";23000000;593;4.0;6.0;4.0;Rua Macau - Jardim Luzitânia - São Paulo/SP;-23.5953477;-46.6597053
lopes;REO29111;"2023-10-23 10:27:21.819186";17000000;1500;3.0;8.0;15.0;Avenida Morumbi - Morumbi - São Paulo/SP;-23.6040358;-46.7123345
lopes;REO22724;"2023-10-23 10:27:39.690529";15000000;790;4.0;6.0;6.0;Avenida Professor Fonseca Rodrigues - Alto De Pinheiros - São Paulo/SP;-23.5457674;-46.7180896
lopes;REO35943;"2023-10-23 10:27:56.886831";20200000;504;3.0;5.0;4.0;Rua Escócia - Jardim Europa - São Paulo/SP;-23.5787407;-46.6835135
lopes;REO513078;"2023-10-23 10:28:14.288134";15000000;522;;4.0;10.0;Avenida Nove De Julho - Jardim Paulista - São Paulo/SP;-23.5698886;-46.6618928
lopes;REO610073;"2023-10-23 10:28:33.246454";26500000;900;4.0;5.0;8.0;Avenida Quarto Centenário - Jardim Luzitânia - São Paulo/SP;-23.5935747;-46.6596291
lopes;REO78822;"2023-10-23 10:29:14.244691";28000000;1200;7.0;11.0;10.0;Rua Marcelo Mistrorigo - Morumbi - São Paulo/SP;-23.5982919;-46.7134713
lopes;REO580716;"2023-10-23 10:29:33.132264";21000000;418;4.0;6.0;5.0;Avenida Agami - Moema - São Paulo/SP;-23.6000346;-46.6607688
lopes;REO638334;"2023-10-23 10:29:50.813349";17500000;473;4.0;6.0;5.0;Rua Inhambú - Moema - São Paulo/SP;-23.6025538;-46.6696475
lopes;REO62535;"2023-10-23 10:30:10.414098";15000000;370;4.0;4.0;4.0;Rua Brás Cardoso - Vila Nova Conceição - São Paulo/SP;-23.5932214;-46.6690985
lopes;REO135493;"2023-10-23 10:30:27.216315";18950000;742;4.0;7.0;5.0;Avenida Doutora Ruth Cardoso - Cidade Jardim - São Paulo/SP;-23.5511175;-46.7241169
lopes;REO404904;"2023-10-23 10:30:44.829305";15000000;550;4.0;9.0;6.0;Alameda Casa Branca - Jardim Paulista - São Paulo/SP;-23.5661707;-46.6601168
lopes;REO602190;"2023-10-23 10:31:02.698483";19150000;540;4.0;5.0;3.0;Rua Sofia - Jardim Europa - São Paulo/SP;-23.5724358;-46.6786019
lopes;REO70458;"2023-10-23 10:31:20.634416";15600000;1400;4.0;10.0;7.0;Rua Trinta E Um De Março - Morumbi - São Paulo/SP;-23.6167182;-46.7142178
lopes;REO78319;"2023-10-23 10:31:36.402918";17000000;550;4.0;;4.0;Rua Alemanha - Jardim Europa - São Paulo/SP;-23.5754346;-46.6764612
lopes;REO125164;"2023-10-23 10:31:53.998598";15000000;768;4.0;10.0;8.0;Rua Teixeira De Freitas - Alto Da Boa Vista - São Paulo/SP;-23.651593;-46.6901915
lopes;REO134754;"2023-10-23 10:32:11.651731";15000000;750;4.0;6.0;10.0;Rua Conde D'eu - Alto Da Boa Vista - São Paulo/SP;-23.6437994;-46.6934223
lopes;REO642758;"2023-10-23 10:32:29.262641";36000000;653;2.0;4.0;6.0;Praça Pereira Coutinho 40 - Vila Nova Conceição - São Paulo/SP;-23.5925392;-46.6694549
lopes;REO618452;"2023-10-23 10:32:46.914452";18000000;900;5.0;6.0;6.0;Rua Doutor João Pinheiro - Jardim Paulista - São Paulo/SP;-23.5763219;-46.6632271
lopes;REO22794;"2023-10-23 10:33:07.192685";29950000;1200;4.0;8.0;8.0;Parque Parque Morumbi - Jardim Guedala - São Paulo/SP;-23.5870196;-46.7059852
lopes;REO547353;"2023-10-23 10:33:24.542003";26000000;1126;5.0;8.0;5.0;Rua Maestro Elias Lobo - Jardim Paulista - São Paulo/SP;-23.5749241;-46.666869
lopes;REO599386;"2023-10-23 10:33:42.701102";18000000;1107;;3.0;;Avenida Engenheiro Luiz Carlos Berrini - Brooklin - São Paulo/SP;-23.604648;-46.6927587
lopes;REO599369;"2023-10-23 10:34:00.430729";18500000;1446;;3.0;;Avenida Engenheiro Luiz Carlos Berrini - Brooklin - São Paulo/SP;-23.604648;-46.6927587
lopes;REO88217;"2023-10-23 10:34:20.857995";17450000;820;4.0;6.0;8.0;Rua Conde De Porto Alegre - Campo Belo - São Paulo/SP;-23.6228659;-46.6742693
lopes;REO581846;"2023-10-23 10:34:38.724564";22000000;534;4.0;6.0;7.0;Avenida Hélio Pellegrino - Vila Nova Conceição - São Paulo/SP;-23.598309;-46.6726165
lopes;REO266086;"2023-10-23 10:34:56.305604";21000000;518;4.0;6.0;6.0;Rua Afonso Braz - Vila Nova Conceição - São Paulo/SP;-23.595506;-46.6684607
lopes;REO611830;"2023-10-23 10:35:12.969526";28000000;770;5.0;6.0;7.0;Rua Armando Petrella - Cidade Jardim - São Paulo/SP;-23.5992112;-46.6996289
lopes;REO624650;"2023-10-23 10:35:29.831031";27990000;770;5.0;6.0;7.0;Rua Armando Petrella - Real Parque - São Paulo/SP;-23.6015511;-46.6997539
lopes;REO666203;"2023-10-23 10:35:46.645272";17950000;415;4.0;6.0;5.0;Rua General Mena Barreto - Jardim Paulista - São Paulo/SP;-23.5806123;-46.6666133
lopes;REO76484;"2023-10-23 10:36:23.417368";16000000;917;7.0;8.0;20.0;Rua Miranda Guerra - Jardim Petrópolis - São Paulo/SP;-23.6334011;-46.6826288
lopes;REO508857;"2023-10-23 10:36:41.883208";17500000300;365;3.0;5.0;5.0;Rua Bela Cintra - Jardim América - São Paulo/SP;-23.5631466;-46.6689359
lopes;REO566387;"2023-10-23 10:36:59.521726";18000000;763;4.0;6.0;4.0;Rua Doutor João Pinheiro - Jardim Paulista - São Paulo/SP;-23.5763219;-46.6632271
lopes;REO211908;"2023-10-23 10:37:16.991148";19000000;634;5.0;8.0;7.0;Rua Marcos Lopes - Vila Nova Conceição - São Paulo/SP;-23.5966743;-46.6711168
lopes;REO211682;"2023-10-23 10:37:35.221036";25000000;1240;10.0;5.0;15.0;Avenida Europa - Jardim Europa - São Paulo/SP;-23.5752363;-46.67808
lopes;REO510285;"2023-10-23 10:37:52.921520";25000000;1117;5.0;9.0;10.0;Rua Visconde De Porto Seguro - Chácara Flora - São Paulo/SP;-23.6424647;-46.6854624
lopes;REO215015;"2023-10-23 10:38:09.822003";35000000;2509;4.0;2.0;4.0;Rua Dos Goivos - Cidade Jardim - São Paulo/SP;-23.5946954;-46.7008463
lopes;REO566249;"2023-10-23 10:38:26.775299";24500000;718;4.0;7.0;7.0;Rua Natividade - Vila Nova Conceição - São Paulo/SP;-23.5969893;-46.6725156
lopes;REO386753;"2023-10-23 10:38:45.272738";16250000;601;4.0;7.0;6.0;Avenida Horácio Lafer - Itaim Bibi - São Paulo/SP;-23.5878823;-46.6835767
lopes;REO195536;"2023-10-23 10:39:02.039040";16000000;1800;;;;Rua Alfredo Pujol - Santana - São Paulo/SP;-23.5002554;-46.6350569
lopes;REO35744;"2023-10-23 10:39:24.303603";30000000;850;5.0;9.0;8.0;Rua D'ouro - Jardim Luzitânia - São Paulo/SP;-23.5929222;-46.6539375
lopes;REO471049;"2023-10-23 10:39:42.113812";15000000;300;3.0;4.0;4.0;Rua Armando Petrella - Cidade Jardim - São Paulo/SP;-23.5992112;-46.6996289
lopes;REO40035;"2023-10-23 10:40:00.043722";15000000;799;5.0;4.0;10.0;Rua Caraúna - City Pinheiros - São Paulo/SP;-23.5509607;-46.7056523
lopes;REO265566;"2023-10-23 10:40:30.536979";17000000;1800;5.0;7.0;13.0;Rua Circular Do Bosque - Jardim Guedala - São Paulo/SP;-23.5875248;-46.7020951
lopes;REO310569;"2023-10-23 10:40:47.677792";70000000;753;7.0;8.0;14.0;Rua Armando Petrella - Cidade Jardim - São Paulo/SP;-23.5992112;-46.6996289
lopes;REO455361;"2023-10-23 10:41:05.397608";20000000;285;3.0;4.0;4.0;Rua Pedroso Alvarenga - Itaim Bibi - São Paulo/SP;-23.5817588;-46.6782307
lopes;REO142266;"2023-10-23 10:41:25.029786";16000000;500;4.0;5.0;7.0;Rua Leopoldo Couto De Magalhães Júnior - Itaim Bibi - São Paulo/SP;-23.5882415;-46.680574
lopes;REO197234;"2023-10-23 10:41:43.486047";15900000;587;4.0;6.0;8.0;Alameda Joaquim Eugênio De Lima - Jardim Paulista - São Paulo/SP;-23.5693755;-46.6540624
lopes;REO134517;"2023-10-23 10:42:00.475754";17000000;587;4.0;7.0;8.0;Alameda Joaquim Eugênio De Lima - Jardim Paulista - São Paulo/SP;-23.5693755;-46.6540624
lopes;REO611700;"2023-10-23 10:42:20.010616";18000000;398;3.0;5.0;6.0;Alameda Jauaperi - Moema - São Paulo/SP;-23.6047551;-46.666986
lopes;REO134950;"2023-10-23 10:42:37.731093";23000000;430;3.0;6.0;5.0;Rua Bueno Brandão - Vila Nova Conceição - São Paulo/SP;-23.5908106;-46.670515
lopes;REO66023;"2023-10-23 10:42:55.749844";16500000;670;5.0;4.0;6.0;Rua Sílvia Celeste De Campos - City Pinheiros - São Paulo/SP;-23.558369;-46.7032041
lopes;REO594332;"2023-10-23 10:43:14.506609";16578270;217;3.0;4.0;3.0;Avenida Agami - Moema - São Paulo/SP;-23.6000346;-46.6607688
lopes;REO13542;"2023-10-23 10:43:52.060543";18000000;680;5.0;7.0;6.0;Rua Curitiba - Paraíso - São Paulo/SP;-23.5812737;-46.6541037
lopes;REO563588;"2023-10-23 10:44:10.612899";19500000;915;5.0;7.0;10.0;Rua Padre João Manuel - Jardim América - São Paulo/SP;-23.5654355;-46.6659449
lopes;REO639864;"2023-10-23 10:44:26.340659";17845000;894;3.0;5.0;6.0;Rua Groenlândia - Jardim América - São Paulo/SP;-23.5720377;-46.6747461
lopes;REO38741;"2023-10-23 10:44:44.887243";21000000;619;4.0;6.0;6.0;Avenida Horácio Lafer - Itaim Bibi - São Paulo/SP;-23.5878823;-46.6835767
lopes;REO563590;"2023-10-23 10:45:03.157129";19500000;915;5.0;8.0;10.0;Rua Padre João Manuel - Jardim Paulista - São Paulo/SP;-23.563555;-46.6640083
lopes;REO380245;"2023-10-23 10:45:21.066523";32000000;858;5.0;6.0;8.0;Alameda Ministro Rocha Azevedo - Cerqueira Cesar - São Paulo/SP;-23.5634698;-46.6615714
lopes;REO209723;"2023-10-23 10:45:38.793450";16900000;502;4.0;8.0;5.0;Rua Leopoldo Couto De Magalhães Júnior - Itaim Bibi - São Paulo/SP;-23.5882415;-46.680574
lopes;REO407608;"2023-10-23 10:45:55.282253";48000000;3926;;14.0;48.0;Rua Purpurina - Vila Madalena - São Paulo/SP;-23.5545239;-46.6922405
lopes;REO445597;"2023-10-23 10:46:14.466483";20565000;779;4.0;6.0;5.0;Avenida Itacira - Moema - São Paulo/SP;-23.6113172;-46.6499441
lopes;REO210225;"2023-10-23 10:46:32.516301";16000000;984;5.0;6.0;6.0;Alameda Barros - Higienópolis - São Paulo/SP;-23.5365757;-46.6557692
lopes;REO398445;"2023-10-23 10:46:49.548275";24400000;540;4.0;6.0;6.0;Rua Curitiba - Ibirapuera - São Paulo/SP;-23.5812737;-46.6541037
lopes;REO81491;"2023-10-23 10:47:07.135232";22450000;553;5.0;7.0;8.0;Rua Frederic Chopin - Jardim Europa - São Paulo/SP;-23.5838842;-46.6881954
lopes;REO74451;"2023-10-23 10:47:24.924819";23000000;466;4.0;6.0;8.0;Rua Mangabeiras - Higienópolis - São Paulo/SP;-23.5405989;-46.6629906
lopes;REO657222;"2023-10-23 10:47:42.500753";18000000;469;5.0;;6.0;Rua Canário - Moema - São Paulo/SP;-23.6016952;-46.6673462
lopes;REO52312;"2023-10-23 10:47:59.518096";17000000;494;4.0;3.0;4.0;Avenida Quarto Centenário - Vila Nova Conceição - São Paulo/SP;-23.5952214;-46.6645034
lopes;REO133905;"2023-10-23 10:48:18.840509";21000000;609;2.0;4.0;5.0;Rua Jacques Félix - Vila Nova Conceição - São Paulo/SP;-23.5917212;-46.6713047
lopes;REO629212;"2023-10-23 10:48:35.552651";19000000;403;3.0;1.0;5.0;Rua Caconde - Jardim Paulista - São Paulo/SP;-23.5736595;-46.6594713
lopes;REO618315;"2023-10-23 10:48:54.682478";20000000;256;3.0;4.0;3.0;Rua Napoleão Michel - Itaim Bibi - São Paulo/SP;-23.5879252;-46.6863156
lopes;REO592094;"2023-10-23 10:49:14.470213";45000000;1231;5.0;7.0;12.0;Rua Frederic Chopin - Jardim Europa - São Paulo/SP;-23.5838842;-46.6881954
lopes;REO37710;"2023-10-23 10:49:31.245080";25000000;4498;;24.0;68.0;Rua Belchior De Azevedo - Vila Leopoldina - São Paulo/SP;-23.5196373;-46.7238934
lopes;REO10530;"2023-10-23 10:49:49.630213";18000000;1000;4.0;7.0;7.0;Rua Olegário Mariano - Jardim Guedala - São Paulo/SP;-23.5909187;-46.7107204
lopes;REO369715;"2023-10-23 10:50:08.588945";17000000;465;4.0;6.0;5.0;Rua Professor Artur Ramos - Jardim Europa - São Paulo/SP;-23.58278;-46.6876421
lopes;REO402219;"2023-10-23 10:50:25.056771";75000000;4782;;10.0;;Rua Doutor César - Santana - São Paulo/SP;-23.5028227;-46.6317748
lopes;REO547855;"2023-10-23 10:51:01.996539";65000000;1050;4.0;;10.0;Praça Pereira Coutinho - Vila Nova Conceição - São Paulo/SP;-23.5932556;-46.6694478
lopes;REO535277;"2023-10-23 10:51:20.037141";16000000;1100;;6.0;;Alameda Jaú - Jardim Paulista - São Paulo/SP;-23.5647351;-46.6565081
lopes;REO384154;"2023-10-23 10:51:47.711262";15000000;723;3.0;6.0;4.0;Rua Henrique Martins - Jardim Paulista - São Paulo/SP;-23.5831961;-46.666563
lopes;REO454686;"2023-10-23 10:52:07.603968";16960000;945;3.0;3.0;5.0;Rua Péricles - Jardim Petrópolis - São Paulo/SP;-23.6317523;-46.6857721
lopes;REO445207;"2023-10-23 10:52:25.295466";17100000;465;4.0;6.0;4.0;Rua Professor Artur Ramos - Jardim Europa - São Paulo/SP;-23.58278;-46.6876421
lopes;REO8273;"2023-10-23 10:52:43.750223";24000000;850;;;17.0;Rua Engenheiro Oscar Americano - Cidade Jardim - São Paulo/SP;-23.5898427;-46.7020063
lopes;REO33364;"2023-10-23 10:53:01.558618";16000000;750;4.0;4.0;6.0;Rua Bastos Pereira - Vila Nova Conceição - São Paulo/SP;-23.5881474;-46.6686506
lopes;REO629211;"2023-10-23 10:53:22.662676";18000000;403;3.0;1.0;5.0;Rua Caconde - Jardim Paulista - São Paulo/SP;-23.5736595;-46.6594713
lopes;REO584923;"2023-10-23 10:53:39.745608";23500000;800;4.0;6.0;11.0;Avenida Nova Cantareira - Tucuruvi - São Paulo/SP;-23.4756986;-46.612347
lopes;REO54764;"2023-10-23 10:53:57.071567";18000000;2318;;;20.0;Avenida São Gabriel - Jardim Paulista - São Paulo/SP;-23.5813276;-46.6706197
lopes;REO313118;"2023-10-23 10:54:13.302760";19000000;584;4.0;8.0;12.0;Avenida Nove De Julho - Jardim Europa - São Paulo/SP;-23.5783259;-46.6755493
lopes;REO589120;"2023-10-23 10:54:31.343331";18000000;538;4.0;6.0;10.0;Rua Conselheiro Torres Homem - Jardim Paulista - São Paulo/SP;-23.5778031;-46.6657557
lopes;REO48661;"2023-10-23 10:54:48.693040";22000000;851;4.0;8.0;5.0;Rua Henrique Martins - Jardim Paulista - São Paulo/SP;-23.5831961;-46.666563
lopes;REO141365;"2023-10-23 10:55:06.072439";20000000;801;3.0;8.0;24.0;Rua Joaquim Cândido De Azevedo Marques - Cidade Jardim - São Paulo/SP;-23.6074859;-46.7096089
lopes;REO80732;"2023-10-23 10:55:22.422637";21000000;3000;;1.0;20.0;Rua General Roberto Alves De Carvalho Filho - Santo Amaro - São Paulo/SP;-23.6559561;-46.7064949
lopes;REO248159;"2023-10-23 10:55:39.806654";32000000;570;5.0;7.0;6.0;Rua Leopoldo Couto De Magalhães Júnior - Itaim Bibi - São Paulo/SP;-23.5882415;-46.680574
lopes;REO629199;"2023-10-23 10:55:58.488667";21608900;307;4.0;1.0;5.0;Rua Groenlândia - Jardim América - São Paulo/SP;-23.5720377;-46.6747461
lopes;REO664450;"2023-10-23 10:56:16.803987";22000000;618;4.0;6.0;4.0;Alameda Ministro Rocha Azevedo - Jardim América - São Paulo/SP;-23.5667162;-46.6648895
lopes;REO159565;"2023-10-23 10:56:34.491488";15000000;838;5.0;8.0;7.0;Rua Zacarias De Gois - Campo Belo - São Paulo/SP;-23.6235272;-46.6718756
lopes;REO652811;"2023-10-23 10:56:52.755320";32000000;570;4.0;5.0;6.0;Rua Leopoldo Couto De Magalhães Júnior - Itaim Bibi - São Paulo/SP;-23.5882415;-46.680574
lopes;REO663891;"2023-10-23 10:57:10.015827";49990000;1500;5.0;6.0;10.0;Rua Joaquim Cândido De Azevedo Marques - Real Parque - São Paulo/SP;-23.6089457;-46.7105884
lopes;REO247837;"2023-10-23 10:57:27.804490";17100000;586;4.0;6.0;4.0;Praça Guilherme Kawall - Jardim Europa - São Paulo/SP;-23.5742106;-46.6931697
lopes;REO57431;"2023-10-23 10:57:45.438469";20000000;1022;;;23.0;Rua Fradique Coutinho - Vila Madalena - São Paulo/SP;-23.5558955;-46.6915915
lopes;REO360806;"2023-10-23 10:58:23.169311";18500000;711;5.0;7.0;6.0;Rua Barão De Bocaina - Higienópolis - São Paulo/SP;-23.5437643;-46.6636781
lopes;REO215104;"2023-10-23 10:58:42.326401";16200000;332;3.0;6.0;5.0;Rua Curitiba - Paraíso - São Paulo/SP;-23.5812737;-46.6541037
lopes;REO607856;"2023-10-23 10:58:59.760694";23000000;712;4.0;5.0;4.0;Rua Atlântica - Jardim América - São Paulo/SP;-23.5671068;-46.6765991
lopes;REO35277;"2023-10-23 10:59:17.685756";35000000;900;4.0;9.0;6.0;Avenida Amarilis - Cidade Jardim - São Paulo/SP;-23.5927163;-46.7030853
lopes;REO44479;"2023-10-23 10:59:34.980732";17000000;616;4.0;7.0;4.0;Rua Doutor João Pinheiro - Jardim Paulista - São Paulo/SP;-23.5763219;-46.6632271
lopes;REO68197;"2023-10-23 10:59:51.664293";18000000;526;5.0;7.0;5.0;Rua Oliveira Dias - Jardim Paulista - São Paulo/SP;-23.5823779;-46.6692675
lopes;REO193010;"2023-10-23 11:00:10.629450";22000000;620;5.0;4.0;4.0;Rua Cuba - Jardim América - São Paulo/SP;-23.5744666;-46.6690367
lopes;REO663167;"2023-10-23 11:00:27.763949";17900000;702;4.0;5.0;4.0;Avenida Doutora Ruth Cardoso - Alto De Pinheiros - São Paulo/SP;-23.5540942;-46.7180068
lopes;REO653727;"2023-10-23 11:00:45.141664";25000000;1512;54.0;54.0;34.0;Avenida Agami - Moema - São Paulo/SP;-23.6000346;-46.6607688
lopes;REO54467;"2023-10-23 11:01:02.797042";15000000;381;3.0;5.0;4.0;Rua Itacema - Itaim Bibi - São Paulo/SP;-23.5795928;-46.6737802
lopes;REO342315;"2023-10-23 11:01:19.800779";15000000;1800;;8.0;25.0;Rua Francisco Dias - Saúde - São Paulo/SP;-23.6139953;-46.618717
lopes;REO623197;"2023-10-23 11:01:37.292328";19200000;465;5.0;7.0;5.0;Rua Chipre - Itaim Bibi - São Paulo/SP;-23.5953275;-46.6799578
lopes;REO640417;"2023-10-23 11:01:54.598983";18617888;451;4.0;6.0;5.0;Rua Dona Elisa Pereira De Barros - Jardim Paulistano - São Paulo/SP;-23.5755225;-46.6928129
lopes;REO253991;"2023-10-23 11:02:12.882414";15000000;372;5.0;3.0;10.0;Rua São Benedito - Alto Da Boa Vista - São Paulo/SP;-23.6423704;-46.6971697
lopes;REO653729;"2023-10-23 11:02:32.140016";15000000;344;;2.0;;Avenida Agami - Moema - São Paulo/SP;-23.6000346;-46.6607688
lopes;REO55933;"2023-10-23 11:02:49.523158";32000000;521;4.0;6.0;6.0;Rua Curitiba - Paraíso - São Paulo/SP;-23.5812737;-46.6541037
lopes;REO471546;"2023-10-23 11:03:08.404302";23000000;826;5.0;9.0;10.0;Rua Conselheiro Brotero - Higienópolis - São Paulo/SP;-23.5336091;-46.6594887
lopes;REO75233;"2023-10-23 11:03:26.280027";19000000;5307;;21.0;57.0;Avenida Diógenes Ribeiro De Lima - City Lapa - São Paulo/SP;-23.5454158;-46.7141417
lopes;REO620747;"2023-10-23 11:03:45.642862";37000000;1460;5.0;6.0;10.0;Rua Henrique Martins - Jardim Paulista - São Paulo/SP;-23.5831961;-46.666563
lopes;REO621161;"2023-10-23 11:04:02.448400";15000000;561;;7.0;8.0;Rua Heitor De Morais - Pacaembú - São Paulo/SP;-23.5442588;-46.6695594
lopes;REO505069;"2023-10-23 11:04:20.715698";25000000;3100;82.0;82.0;50.0;Rua Loefgren - Vila Clementino - São Paulo/SP;-23.5996949;-46.6430333
lopes;REO637487;"2023-10-23 11:04:43.915458";47400000;787;;6.0;20.0;Rua Colômbia - Jardim América - São Paulo/SP;-23.5693421;-46.6719356
lopes;REO52676;"2023-10-23 11:05:01.168605";16000000;300;4.0;6.0;4.0;Rua Alemanha - Jardim Europa - São Paulo/SP;-23.5754346;-46.6764612
lopes;REO51450;"2023-10-23 11:05:36.372613";59850000;707;;1.0;;Rua Doze De Outubro - Lapa - São Paulo/SP;-23.5215024;-46.704811
lopes;REO443658;"2023-10-23 11:05:54.207226";30000000;9230;;10.0;30.0;Rua Major Paladino - Vila Leopoldina - São Paulo/SP;-23.5221314;-46.7414897
lopes;REO602159;"2023-10-23 11:06:11.644996";31048000;722;4.0;5.0;4.0;Rua Alves Guimarães - Pinheiros - São Paulo/SP;-23.5556837;-46.6782927
lopes;REO254852;"2023-10-23 11:06:34.069216";28000000;565;5.0;5.0;9.0;Rua Jacques Félix - Vila Nova Conceição - São Paulo/SP;-23.5917212;-46.6713047
lopes;REO169984;"2023-10-23 11:06:51.506251";16000000;1165;;;3.0;Avenida Cotovia - Moema - São Paulo/SP;-23.6044163;-46.6743757
lopes;REO260580;"2023-10-23 11:07:07.962124";15900000;1065;;7.0;3.0;Avenida Cotovia - Moema - São Paulo/SP;-23.6044163;-46.6743757
lopes;REO68122;"2023-10-23 11:07:25.112851";20000000;1000;4.0;6.0;7.0;Rua Sebastião Cabot - Jardim Guedala - São Paulo/SP;-23.5830931;-46.7059735
lopes;REO105732;"2023-10-23 11:07:44.443606";22000000;880;4.0;6.0;5.0;Rua Comandante Ismael Guilherme - Jardim Luzitânia - São Paulo/SP;-23.5947294;-46.6599441
lopes;REO494064;"2023-10-23 11:08:01.544367";24500000;534;4.0;6.0;7.0;Avenida Hélio Pellegrino - Vila Nova Conceição - São Paulo/SP;-23.598309;-46.6726165
lopes;REO59865;"2023-10-23 11:08:21.584342";15232000;568;;;22.0;Rua Verbo Divino - Chácara Santo Antônio - São Paulo/SP;-23.6335854;-46.7050928
lopes;REO107382;"2023-10-23 11:08:40.491233";20215000;833;;4.0;8.0;Avenida Europa - Jardim Europa - São Paulo/SP;-23.5752363;-46.67808
lopes;REO641531;"2023-10-23 11:08:58.193533";15900000;873;1.0;11.0;18.0;Rua Vergueiro - Vila Maria - São Paulo/SP;-23.5200227;-46.5853733
lopes;REO92340;"2023-10-23 11:09:12.783039";16800000;236;3.0;;4.0;Rua Armando Petrella - Real Parque - São Paulo/SP;-23.6015511;-46.6997539
lopes;REO612998;"2023-10-23 11:09:25.855644";250000000;5500;;10.0;10.0;Avenida Interlagos - Jardim Marajoara - São Paulo/SP;-23.6571771;-46.6797251
lopes;REO534825;"2023-10-23 11:09:39.210024";20000000;3522;;;;Rua Domingos De Morais - Vila Mariana - São Paulo/SP;-23.5918627;-46.6363128
lopes;REO392354;"2023-10-23 11:09:52.023385";30000000;2137;;8.0;41.0;Avenida Adolfo Pinheiro - Santo Amaro - São Paulo/SP;-23.6420776;-46.6985934
lopes;REO8579;"2023-10-23 11:10:06.731022";35000000;8473;;10.0;;Avenida Ipiranga - Centro - São Paulo/SP;-23.5412046;-46.6388147
lopes;REO194908;"2023-10-23 11:10:22.746164";21500000;534;4.0;6.0;7.0;Avenida Hélio Pellegrino - Vila Nova Conceição - São Paulo/SP;-23.598309;-46.6726165
lopes;REO54674;"2023-10-23 11:10:35.494991";25000000;627;3.0;6.0;4.0;Avenida Quarto Centenário - Jardim Luzitânia - São Paulo/SP;-23.5935747;-46.6596291
lopes;REO92959;"2023-10-23 11:10:49.564644";25000000;900;8.0;15.0;30.0;Avenida Rebouças - Pinheiros - São Paulo/SP;-23.5681181;-46.6850522
lopes;REO368511;"2023-10-23 11:11:01.371649";25000000;1253;;10.0;15.0;Rua Vergueiro - Paraíso - São Paulo/SP;-23.5763775;-46.641
lopes;REO471191;"2023-10-23 11:11:16.306093";26000000;6243;;82.0;45.0;Rua José Antônio Coelho - Vila Mariana - São Paulo/SP;-23.580497;-46.6446169
lopes;REO145735;"2023-10-23 11:11:30.401111";24000000;3900;;;50.0;Avenida General Valdomiro De Lima - Jabaquara - São Paulo/SP;-23.6381389;-46.6454358
lopes;REO135705;"2023-10-23 11:11:58.943004";17000000;3000;;12.0;40.0;Avenida Marquês De São Vicente - Barra Funda - São Paulo/SP;-23.521458;-46.6666859
lopes;REO613742;"2023-10-23 11:12:11.066462";23508800;238;4.0;5.0;3.0;Avenida República Do Líbano - Moema - São Paulo/SP;-23.590308;-46.6644375
lopes;REO470162;"2023-10-23 11:12:24.555258";32000000;518;4.0;4.0;6.0;Rua Afonso Braz - Vila Nova Conceição - São Paulo/SP;-23.595506;-46.6684607
lopes;REO605760;"2023-10-23 11:12:36.577309";15000000;350;;;;Rua Clodomiro Amazonas - Itaim Bibi - São Paulo/SP;-23.5878243;-46.6790223
lopes;REO145374;"2023-10-23 11:12:49.530392";16000000;500;4.0;4.0;4.0;Rua Canadá - Jardim América - São Paulo/SP;-23.5729433;-46.6681172
lopes;REO355014;"2023-10-23 11:13:01.567679";40000000;5785;;20.0;50.0;Avenida Santa Marina - Água Branca - São Paulo/SP;-23.5152804;-46.6904816
lopes;REO359522;"2023-10-23 11:13:13.804292";17500000;1046;;6.0;16.0;Avenida Marquês De São Vicente - Barra Funda - São Paulo/SP;-23.521458;-46.6666859
lopes;REO461521;"2023-10-23 11:13:26.067689";17500000;1069;;6.0;16.0;Avenida Marquês De São Vicente - Barra Funda - São Paulo/SP;-23.521458;-46.6666859
lopes;REO573536;"2023-10-23 11:13:38.794176";17000000;878;;9.0;21.0;Avenida Sumaré - Perdizes - São Paulo/SP;-23.5379552;-46.6745313
lopes;REO162554;"2023-10-23 11:13:51.767218";32000000;632;4.0;6.0;10.0;Rua Do Livramento - Ibirapuera - São Paulo/SP;-23.5795335;-46.652537
lopes;REO76146;"2023-10-23 11:14:04.616784";17000000;1156;5.0;8.0;10.0;Rua Bragança - Pacaembú - São Paulo/SP;-23.5404468;-46.6661955
lopes;REO476756;"2023-10-23 11:14:17.989533";16960000;1014;;6.0;;Alameda Jaú - Jardim Paulista - São Paulo/SP;-23.5647351;-46.6565081
lopes;REO40343;"2023-10-23 11:14:30.542623";15000000;820;;7.0;8.0;Rua Gomes De Carvalho - Vila Olímpia - São Paulo/SP;-23.5981865;-46.6829037
lopes;REO68394;"2023-10-23 11:14:42.756549";15000000;1327;;8.0;16.0;Rua Ponta Delgada - Vila Olímpia - São Paulo/SP;-23.5996187;-46.6838355
lopes;REO84580;"2023-10-23 11:14:54.640717";30000000;4800;;;100.0;Avenida Salim Farah Maluf - Tatuapé - São Paulo/SP;-23.5355653;-46.5826016
lopes;REO584312;"2023-10-23 11:15:06.677254";21285200;424;4.0;6.0;5.0;Rua Lopes Neto - Itaim Bibi - São Paulo/SP;-23.5874951;-46.6833485
lopes;REO604313;"2023-10-23 11:15:22.360098";18627968;643;4.0;6.0;3.0;Rua Teviot - Vila Nova Conceição - São Paulo/SP;-23.5866888;-46.6689603
lopes;REO326074;"2023-10-23 11:15:35.271992";15000000;210;;4.0;4.0;Rua Itacema - Itaim Bibi - São Paulo/SP;-23.5795928;-46.6737802
lopes;REO64021;"2023-10-23 11:15:50.990495";20000000;1505;;;;Rua Padre Manuel De Chaves - Jardim Europa - São Paulo/SP;-23.5794505;-46.6807113
lopes;REO461944;"2023-10-23 11:16:04.117165";42000000;3926;;72.0;48.0;Rua Purpurina - Vila Madalena - São Paulo/SP;-23.5545239;-46.6922405
lopes;REO550480;"2023-10-23 11:16:19.043762";18608442;475;4.0;;5.0;Alameda Campinas - Jardim Paulista - São Paulo/SP;-23.5677711;-46.6550622
lopes;REO346399;"2023-10-23 11:16:31.637492";32400000;2703;;20.0;83.0;Rua Doutora Neyde Apparecida Sollitto - Vila Clementino - São Paulo/SP;-23.5935422;-46.6484898
lopes;REO364532;"2023-10-23 11:16:44.383320";15000000;943;;4.0;4.0;Rua Henrique Schaumann - Pinheiros - São Paulo/SP;-23.5598117;-46.6809581
lopes;REO395539;"2023-10-23 11:17:08.544202";50000000;2733;;18.0;87.0;Rua Teodoro Sampaio - Pinheiros - São Paulo/SP;-23.5612548;-46.6836709
lopes;REO378931;"2023-10-23 11:17:22.780832";35000000;6013;;20.0;100.0;Rua Laguna - Chácara Santo Antônio (zona Sul) - São Paulo/SP;-23.6356352;-46.7143849
lopes;REO378896;"2023-10-23 11:17:35.471552";18100000;1300;;;;Rua Pascal - Campo Belo - São Paulo/SP;-23.6208342;-46.6716853
lopes;REO455810;"2023-10-23 11:17:47.640151";40000000;2674;;28.0;30.0;Avenida Angélica 2223 - Higienópolis - São Paulo/SP;-23.5476238;-46.6582683
lopes;REO77889;"2023-10-23 11:18:03.214622";180000000;6420;;60.0;53.0;Avenida Paulista - Bela Vista - São Paulo/SP;-23.5657393;-46.6512379
lopes;REO59801;"2023-10-23 11:18:15.581029";15000000;958;;4.0;6.0;Rua Passo Da Pátria - Lapa - São Paulo/SP;-23.527784;-46.726165
lopes;REO585485;"2023-10-23 11:18:30.462622";40000000;2648;;10.0;;Avenida Nove De Julho - Jardim Paulista - São Paulo/SP;-23.5698886;-46.6618928
lopes;REO89079;"2023-10-23 11:18:42.358033";60000000;5493;;;86.0;Rua Bela Cintra - Bela Vista - São Paulo/SP;-23.552052;-46.6548731
lopes;REO89652;"2023-10-23 11:18:56.003750";23500000;612;5.0;6.0;4.0;Rua Sarita Cyrillo - Jardim Paulista - São Paulo/SP;-23.5807426;-46.6684603
lopes;REO106567;"2023-10-23 11:19:08.652708";17990000;1137;;;30.0;Rua Verbo Divino - Chácara Santo Antônio - São Paulo/SP;-23.6335854;-46.7050928
lopes;REO619528;"2023-10-23 11:19:21.064372";18000000;1100;;8.0;15.0;Avenida Santo Amaro - Vila Nova Conceição - São Paulo/SP;-23.5918016;-46.6726331
lopes;REO245722;"2023-10-23 11:19:32.814428";24000000;2300;;22.0;41.0;Avenida Queiroz Filho - Alto Da Lapa - São Paulo/SP;-23.5380301;-46.7264042
lopes;REO394414;"2023-10-23 11:19:45.135384";15000000;1915;;3.0;3.0;Rua Do Oratório - Mooca - São Paulo/SP;-23.5622372;-46.5919158
lopes;REO240415;"2023-10-23 11:19:58.388774";80000000;4464;;44.0;41.0;Rua Frei Caneca - Bela Vista - São Paulo/SP;-23.5532666;-46.6522874
lopes;REO63458;"2023-10-23 11:20:10.823546";35000000;1500;;3.0;20.0;Rua Dos Pinheiros - Pinheiros - São Paulo/SP;-23.5667041;-46.6853964
lopes;REO85540;"2023-10-23 11:20:23.380970";88000000;8700;;;200.0;Rua Dos Trilhos - Mooca - São Paulo/SP;-23.5533711;-46.5991421
lopes;REO57813;"2023-10-23 11:20:35.867157";17990000;1137;;;30.0;Rua Verbo Divino - Chácara Santo Antônio - São Paulo/SP;-23.6335854;-46.7050928
lopes;REO338195;"2023-10-23 11:20:53.460195";120000000;4427;;50.0;128.0;Rua Bela Cintra - Bela Vista - São Paulo/SP;-23.552052;-46.6548731
lopes;REO263215;"2023-10-23 11:21:05.994492";21500000;7781;;6.0;10.0;Avenida Baruel - Casa Verde - São Paulo/SP;-23.503745;-46.6571402
lopes;REO10845;"2023-10-23 11:21:18.534874";20000000;1000;4.0;9.0;8.0;Rua Reseda - Cidade Jardim - São Paulo/SP;-23.5942058;-46.6981966
lopes;REO89021;"2023-10-23 11:21:29.985968";20000000;900;5.0;5.0;6.0;Rua David Pimentel - Morumbi - São Paulo/SP;-23.6128018;-46.7177071
lopes;REO205045;"2023-10-23 11:21:42.669025";15000000;550;5.0;8.0;4.0;Rua Colatino Marques - Jardim Paulista - São Paulo/SP;-23.5857851;-46.66484
lopes;REO660611;"2023-10-23 11:21:55.517161";24000000;2360;;50.0;51.0;Rua Vergueiro - Vila Mariana - São Paulo/SP;-23.5869609;-46.6342849
lopes;REO576576;"2023-10-23 11:22:21.030577";26000000;1256;;2.0;1.0;Rua Oscar Freire - Pinheiros - São Paulo/SP;-23.5550954;-46.6757187
lopes;REO216700;"2023-10-23 11:22:32.812582";38000000;4020;;15.0;;Praça Da República - Centro - São Paulo/SP;-23.5440722;-46.6425062
lopes;REO241343;"2023-10-23 11:22:44.940412";32000000;858;5.0;;5.0;Alameda Ministro Rocha Azevedo - Jardim América - São Paulo/SP;-23.5667162;-46.6648895
lopes;REO385222;"2023-10-23 11:22:57.716713";19000000;5032;1.0;1.0;10.0;Avenida Vereador José Diniz - Alto Da Boa Vista - São Paulo/SP;-23.627329;-46.6844451
lopes;REO616476;"2023-10-23 11:23:11.885721";35985000;632;4.0;6.0;4.0;Rua Vupabussu - Pinheiros - São Paulo/SP;-23.559882;-46.6984256
lopes;REO3963;"2023-10-23 11:23:24.046668";30000000;1100;5.0;6.0;8.0;Rua Argentina - Jardim América - São Paulo/SP;-23.571526;-46.668903
lopes;REO616474;"2023-10-23 11:23:36.379560";26052000;506;4.0;6.0;4.0;Rua Vupabussu - Pinheiros - São Paulo/SP;-23.559882;-46.6984256
lopes;REO662575;"2023-10-23 11:23:48.494732";22958000;472;4.0;6.0;4.0;Avenida Cidade Jardim - Itaim Bibi - São Paulo/SP;-23.5826849;-46.6859686
lopes;REO215128;"2023-10-23 11:24:00.734007";21000000;376;1.0;1.0;1.0;Rua Monsenhor Andrade - Brás - São Paulo/SP;-23.540121;-46.622073
lopes;REO505396;"2023-10-23 11:24:13.702443";21774100;424;4.0;6.0;5.0;Rua Lopes Neto - Itaim Bibi - São Paulo/SP;-23.5874951;-46.6833485
lopes;REO274047;"2023-10-23 11:24:25.009773";40000000;513;3.0;3.0;3.0;Avenida Cidade Jardim - Cidade Jardim - São Paulo/SP;-23.5866596;-46.6914565
lopes;REO585471;"2023-10-23 11:24:39.607942";40000000;145;;10.0;;Avenida Nove De Julho - Jardim Paulista - São Paulo/SP;-23.5698886;-46.6618928
lopes;REO186362;"2023-10-23 11:24:51.297553";70000000;5213;;;;Rua Doutor César - Santana - São Paulo/SP;-23.5028227;-46.6317748
lopes;REO621613;"2023-10-23 11:25:03.301298";25600000;2844;;24.0;28.0;Avenida Maria Coelho Aguiar 215 - Campo Limpo - São Paulo/SP;-23.6485505;-46.732346
lopes;REO584798;"2023-10-23 11:25:16.226758";17500000;3561;;6.0;60.0;Avenida Marquês De São Vicente - Barra Funda - São Paulo/SP;-23.521458;-46.6666859
lopes;REO341881;"2023-10-23 11:25:30.203451";18000000;2848;;8.0;12.0;Estrada Turística Do Jaraguá - Jaraguá - São Paulo/SP;-23.469316;-46.7542667
lopes;REO341879;"2023-10-23 11:25:43.134315";18000000;2848;;8.0;20.0;Estrada Turística Do Jaraguá - Jaraguá - São Paulo/SP;-23.469316;-46.7542667
lopes;REO378977;"2023-10-23 11:25:55.361586";23000000;591;4.0;3.0;10.0;Rua Teviot - Vila Nova Conceição - São Paulo/SP;-23.5866888;-46.6689603
lopes;REO75952;"2023-10-23 11:26:08.721870";50000000;2015;;10.0;35.0;Avenida Doutor Gastão Vidigal - Vila Leopoldina - São Paulo/SP;-23.5310035;-46.7369496
lopes;REO343836;"2023-10-23 11:26:21.497360";21500000;7781;;12.0;;Avenida Baruel - Casa Verde - São Paulo/SP;-23.503745;-46.6571402
lopes;REO16851;"2023-10-23 11:26:33.476364";26500000;4586;;;;Rua Da Mooca - Mooca - São Paulo/SP;-23.5550339;-46.6051748
lopes;REO6203;"2023-10-23 11:26:46.271161";18000000;300;;3.0;11.0;Avenida Brasil - Jardim América - São Paulo/SP;-23.5706274;-46.6705692
lopes;REO458374;"2023-10-23 11:26:59.517788";35000000;1500;;4.0;10.0;Rua Dos Pinheiros - Pinheiros - São Paulo/SP;-23.5667041;-46.6853964
lopes;REO401573;"2023-10-23 11:27:29.082724";19000000;1338;;10.0;;Rua Vergueiro - Vila Mariana - São Paulo/SP;-23.5869609;-46.6342849
lopes;REO518828;"2023-10-23 11:27:41.854476";15000000;1327;;8.0;16.0;Rua Ponta Delgada - Vila Olímpia - São Paulo/SP;-23.5996187;-46.6838355
lopes;REO263925;"2023-10-23 11:27:56.383564";128000000;21126;;10.0;20.0;Avenida Presidente Castelo Branco - Santana - São Paulo/SP;-23.5188564;-46.6441499
lopes;REO85075;"2023-10-23 11:28:07.959872";32000000;917;4.0;7.0;20.0;Rua Miranda Guerra - Alto Da Boa Vista - São Paulo/SP;-23.6345028;-46.6809515
lopes;REO406634;"2023-10-23 11:28:20.622697";40000000;2545;;12.0;36.0;Rua Bento De Andrade - Jardim Paulista - São Paulo/SP;-23.5834366;-46.6669817
lopes;REO534622;"2023-10-23 11:28:34.041016";22000000;2594;;20.0;35.0;Rua Galvão Bueno - Liberdade - São Paulo/SP;-23.5596324;-46.6349487
lopes;REO458509;"2023-10-23 11:28:46.287338";35000000;1584;;4.0;20.0;Rua Dos Pinheiros - Pinheiros - São Paulo/SP;-23.5667041;-46.6853964
lopes;REO451141;"2023-10-23 11:28:58.954434";22000000;2772;;11.0;14.0;Rua Rubens Meireles - Barra Funda - São Paulo/SP;-23.5182905;-46.6655251
lopes;REO142581;"2023-10-23 11:29:10.635493";19000000;3543;;;49.0;Avenida Nova Cantareira - Tucuruvi - São Paulo/SP;-23.4756986;-46.612347
lopes;REO644126;"2023-10-23 11:29:22.820561";22000000;1474;;8.0;;Praça Floriano Peixoto - Santo Amaro - São Paulo/SP;-23.6513462;-46.7073953
lopes;REO399022;"2023-10-23 11:29:36.656513";16000000;1608;;4.0;32.0;Rua Padre José De Anchieta - Alto Da Boa Vista - São Paulo/SP;-23.650042;-46.7017383
lopes;REO104154;"2023-10-23 11:29:52.122127";17000000;551;4.0;6.0;6.0;Rua Henrique Martins - Jardim Paulista - São Paulo/SP;-23.5831961;-46.666563
lopes;REO31293;"2023-10-23 11:30:05.057288";34000000;2630;;;;Rua Bela Cintra - Bela Vista - São Paulo/SP;-23.552052;-46.6548731
lopes;REO477588;"2023-10-23 11:30:18.108522";17190000;1100;;6.0;;Alameda Jaú - Jardim América - São Paulo/SP;-23.5633097;-46.6581995
lopes;REO106525;"2023-10-23 11:30:30.506887";30000000;2422;;;30.0;Rua São Vicente De Paulo - Higienópolis - São Paulo/SP;-23.5405826;-46.657087
lopes;REO535173;"2023-10-23 11:30:43.954508";19000000;882;;25.0;;Rua Domingos De Morais - Vila Mariana - São Paulo/SP;-23.5918627;-46.6363128
lopes;REO376338;"2023-10-23 11:30:57.971826";28000000;3400;5.0;4.0;3.0;Rua Granja Julieta - Granja Julieta - São Paulo/SP;-23.6413715;-46.7010811
lopes;REO649663;"2023-10-23 11:31:11.310010";18500000;836;;10.0;10.0;Avenida Rubem Berta - Moema - São Paulo/SP;-23.600044;-46.6511009
lopes;REO530736;"2023-10-23 11:31:23.544333";67500000;260;;3.0;2.0;Avenida Celso Garcia - Tatuapé - São Paulo/SP;-23.5357642;-46.5709968
lopes;REO496341;"2023-10-23 11:31:36.859958";21000000;3300;;25.0;90.0;Avenida Engenheiro Caetano Álvares - Casa Verde - São Paulo/SP;-23.4885179;-46.6497442
lopes;REO327506;"2023-10-23 11:31:53.388225";17500000;2500;;;;Rua Carandaí - Casa Verde - São Paulo/SP;-23.5079288;-46.6577776
lopes;REO581130;"2023-10-23 11:32:06.530906";48760000;7978;;10.0;120.0;Avenida Doutor Altino Arantes - Vila Clementino - São Paulo/SP;-23.6027345;-46.6421033
lopes;REO66293;"2023-10-23 11:32:19.703903";17990000;1137;;;30.0;Rua Verbo Divino - Chácara Santo Antônio - São Paulo/SP;-23.6335854;-46.7050928
lopes;REO66293;"2023-10-23 11:32:45.997032";17990000;1137;;;30.0;Rua Verbo Divino - Chácara Santo Antônio - São Paulo/SP;-23.6335854;-46.7050928
lopes;REO72731;"2023-10-23 11:32:58.670747";17990000;1137;;;30.0;Rua Verbo Divino - Chácara Santo Antônio - São Paulo/SP;-23.6335854;-46.7050928
lopes;REO19516;"2023-10-23 11:33:10.793675";17990000;1137;;;30.0;Rua Verbo Divino - Chácara Santo Antônio - São Paulo/SP;-23.6335854;-46.7050928
lopes;REO496622;"2023-10-23 11:33:22.891086";23220000;543;;;16.0;Avenida Brigadeiro Faria Lima - Jardim Europa - São Paulo/SP;-23.5773416;-46.6869569
lopes;REO102287;"2023-10-23 11:33:34.741745";17990000;1137;;;30.0;Rua Verbo Divino - Chácara Santo Antônio - São Paulo/SP;-23.6335854;-46.7050928
lopes;REO62037;"2023-10-23 11:33:46.879565";17990000;1137;;;30.0;Rua Verbo Divino - Chácara Santo Antônio - São Paulo/SP;-23.6335854;-46.7050928
lopes;REO571737;"2023-10-23 11:33:59.105445";15000000;271;;6.0;5.0;Avenida Washington Luís - Jardim Marajoara - São Paulo/SP;-23.6512018;-46.6855261
lopes;REO821034;"2023-10-23 11:34:11.449028";40000000;185;;2.0;2.0;Avenida Washington Luís - Santo Amaro - São Paulo/SP;-23.6513992;-46.6864247
lopes;REO821039;"2023-10-23 11:34:24.223577";40000000;4900;;10.0;30.0;Avenida Washington Luís - Santo Amaro - São Paulo/SP;-23.6513992;-46.6864247
lopes;REO821029;"2023-10-23 11:34:37.237509";40000000;238;;2.0;2.0;Avenida Washington Luís - Santo Amaro - São Paulo/SP;-23.6513992;-46.6864247
lopes;REO568721;"2023-10-23 11:34:49.409787";22000000;1327;;12.0;25.0;Avenida José Maria Whitaker - Planalto Paulista - São Paulo/SP;-23.6128326;-46.6444503
lopes;REO327505;"2023-10-23 11:35:00.922991";17500000;2500;;;;Rua Carandaí - Casa Verde - São Paulo/SP;-23.5079288;-46.6577776
lopes;REO327508;"2023-10-23 11:35:13.371476";17500000;2500;;;;Rua Carandaí - Casa Verde - São Paulo/SP;-23.5079288;-46.6577776
lopes;REO327510;"2023-10-23 11:35:25.409015";17500000;2500;;;;Rua Carandaí - Casa Verde - São Paulo/SP;-23.5079288;-46.6577776
lopes;REO327511;"2023-10-23 11:35:37.624663";17500000;2500;;;;Rua Carandaí - Casa Verde - São Paulo/SP;-23.5079288;-46.6577776
lopes;REO327509;"2023-10-23 11:35:50.137810";17500000;2500;;;;Rua Carandaí - Casa Verde - São Paulo/SP;-23.5079288;-46.6577776
lopes;REO327507;"2023-10-23 11:36:02.081990";17500000;2500;;;;Rua Carandaí - Casa Verde - São Paulo/SP;-23.5079288;-46.6577776
lopes;REO327504;"2023-10-23 11:36:15.735750";17500000;2500;;;;Rua Carandaí - Casa Verde - São Paulo/SP;-23.5079288;-46.6577776
lopes;REO577827;"2023-10-23 11:36:33.228909";35000000;11569;;;;Via Anhangüera - Pirituba - São Paulo/SP;-21.8140101;-47.4979859
lopes;REO406204;"2023-10-23 11:36:45.629771";35000000;5708;;10.0;150.0;Avenida Nossa Senhora Do Sabará - Jardim Marajoara - São Paulo/SP;-23.679293;-46.6847117
lopes;REO341883;"2023-10-23 11:36:57.861282";18000000;2848;;8.0;12.0;Estrada Turística Do Jaraguá - Jaraguá - São Paulo/SP;-23.469316;-46.7542667
lopes;REO69508;"2023-10-23 11:37:10.629044";18825000;753;3.0;5.0;3.0;Rua Armando Petrella - Real Parque - São Paulo/SP;-23.6015511;-46.6997539
lopes;REO90605;"2023-10-23 11:37:25.559963";24000000;540;4.0;6.0;6.0;Rua Brás Cardoso - Vila Nova Conceição - São Paulo/SP;-23.5932214;-46.6690985
lopes;REO610497;"2023-10-23 11:37:54.149726";15500000;625;;;15.0;Avenida Paulista - Bela Vista - São Paulo/SP;-23.5657393;-46.6512379
lopes;REO597978;"2023-10-23 11:38:07.814885";15000000;413;;;;Rua João Cachoeira - Vila Nova Conceição - São Paulo/SP;-23.5894776;-46.6762996
lopes;REO35254;"2023-10-23 11:38:20.428668";20000000;2927;;;50.0;Alameda Barão De Limeira - Barra Funda - São Paulo/SP;-23.531899;-46.6496888
lopes;REO649656;"2023-10-23 11:38:33.849880";44000000;2079;;10.0;10.0;Avenida Rubem Berta - Moema - São Paulo/SP;-23.600044;-46.6511009
lopes;REO186426;"2023-10-23 11:38:50.614386";19000000;1500;;;;Avenida Otaviano Alves De Lima - Freguesia Do Ó - São Paulo/SP;-23.507249;-46.699413
lopes;REO380694;"2023-10-23 11:39:02.522281";65000000;4400;;30.0;;Rua Martins Fontes - Centro - São Paulo/SP;-23.5492334;-46.6442819
lopes;REO82385;"2023-10-23 11:39:14.578051";40000000;3000;;;;Avenida Jabaquara - Planalto Paulista - São Paulo/SP;-23.6281903;-46.6441867
lopes;REO564693;"2023-10-23 11:39:27.148934";19500000;4951;;13.0;15.0;Rua Guacari - Penha - São Paulo/SP;-23.518517;-46.54579
lopes;REO548011;"2023-10-23 11:39:38.568474";21300000;5250;;10.0;20.0;Avenida Otaviano Alves De Lima - Casa Verde - São Paulo/SP;-23.5152999;-46.6585136
lopes;REO72175;"2023-10-23 11:39:52.059607";17000000;2125;4.0;2.0;;Rua Filipe Camarão - Tatuapé - São Paulo/SP;-23.5378855;-46.579269
lopes;REO509372;"2023-10-23 11:40:05.018125";25000000;15000;;;;Avenida Doutor Francisco Mesquita - Vila Prudente - São Paulo/SP;-23.5877271;-46.5898437
lopes;REO38432;"2023-10-23 11:40:16.902326";17990000;1137;;;30.0;Rua Verbo Divino - Chácara Santo Antônio - São Paulo/SP;-23.6335854;-46.7050928
lopes;REO555675;"2023-10-23 11:40:34.360707";15000000;1050;;4.0;4.0;Rua Doze De Setembro - Vila Guilherme - São Paulo/SP;-23.5149457;-46.6089093
lopes;REO532588;"2023-10-23 11:40:47.359529";53456000;13364;;;;Avenida Morvan Dias De Figueiredo - Vila Guilherme - São Paulo/SP;-23.5225187;-46.609986
lopes;REO757849;"2023-10-23 11:41:01.676676";27800000;405;4.0;5.0;5.0;Rua Seridó - Jardim Europa - São Paulo/SP;-23.5829305;-46.6898405
lopes;REO778772;"2023-10-23 11:41:14.628239";15650000;288;3.0;6.0;4.0;Rua Pedroso Alvarenga - Itaim Bibi - São Paulo/SP;-23.5817588;-46.6782307
lopes;REO604454;"2023-10-23 11:41:27.700127";25000000;16965;;;;Rodovia Rodovia Raposo Tavares - Butantã - São Paulo/SP;-23.5757292;-46.7177973
lopes;REO767192;"2023-10-23 11:41:40.243863";20000000;487;4.0;6.0;5.0;Avenida Lavandisca - Moema - São Paulo/SP;-23.6015867;-46.6657615
lopes;REO749286;"2023-10-23 11:41:52.206640";50000000;772;3.0;6.0;3.0;Rua Oscar Freire - Jardim América - São Paulo/SP;-23.5662168;-46.6654575
lopes;REO742133;"2023-10-23 11:42:05.515673";20000000;500;4.0;5.0;7.0;Rua Leopoldo Couto De Magalhães Júnior - Itaim Bibi - São Paulo/SP;-23.5882415;-46.680574
lopes;REO81902;"2023-10-23 11:42:18.845215";19000000;455;4.0;6.0;5.0;Rua Maranhão - Higienópolis - São Paulo/SP;-23.5442501;-46.6576309
lopes;REO615137;"2023-10-23 11:42:30.374667";15000000;11000;;;;Rua Fructuoso Viana - Horto - São Paulo/SP;-23.4495186;-46.6299854
lopes;REO365927;"2023-10-23 11:42:42.523889";18000000;942;;4.0;18.0;Avenida Dos Bandeirantes - Vila Olímpia - São Paulo/SP;-23.5996604;-46.6846734
lopes;REO393204;"2023-10-23 11:43:07.055263";32000000;2560;;48.0;61.0;Rua Júlio Diniz - Vila Nova Conceição - São Paulo/SP;-23.5985808;-46.684498
lopes;REO657683;"2023-10-23 11:43:19.504652";40000000;1079;;;35.0;Rua Bento De Andrade - Jardim Paulista - São Paulo/SP;-23.5834366;-46.6669817
lopes;REO119629;"2023-10-23 11:43:32.788347";17000000;584;;;;Avenida São Gualter - Alto De Pinheiros - São Paulo/SP;-23.5457273;-46.7107964
lopes;REO89492;"2023-10-23 11:43:45.986035";16000000;400;4.0;4.0;3.0;Rua Juquiá - Jardim Europa - São Paulo/SP;-23.5702909;-46.6815367
lopes;REO692147;"2023-10-23 11:43:58.435926";17000000;600;4.0;6.0;8.0;Alameda Itu - Jardim Paulista - São Paulo/SP;-23.5634152;-46.6600198
lopes;REO565469;"2023-10-23 11:44:10.225993";15950000;471;4.0;4.0;6.0;Rua Pamplona - Jardim Paulista - São Paulo/SP;-23.5663832;-46.656369
lopes;REO84288;"2023-10-23 11:44:22.109036";44640000;1753;;22.0;22.0;Rua Pandiá Calógeras - Liberdade - São Paulo/SP;-23.564259;-46.6333862
lopes;REO505408;"2023-10-23 11:47:49.433838";15000000;335;4.0;5.0;4.0;Rua Leopoldo Couto De Magalhães Júnior - Itaim Bibi - São Paulo/SP;-23.5882415;-46.680574
lopes;REO800044;"2023-10-23 11:48:03.649585";16000000;410;4.0;6.0;5.0;Rua Hermano Ribeiro Da Silva - Vila Mariana - São Paulo/SP;-23.5810151;-46.6523026
lopes;REO750800;"2023-10-23 11:48:16.802862";20000000;470;4.0;5.0;3.0;Rua Angelina Maffei Vita - Jardim Europa - São Paulo/SP;-23.5791309;-46.6899488
lopes;REO711282;"2023-10-23 11:48:28.527388";24500000;3292;;28.0;30.0;Rua Josef Kryss - Barra Funda - São Paulo/SP;-23.5177462;-46.6760128
lopes;REO39931;"2023-10-23 11:48:41.296217";21000000;900;4.0;9.0;10.0;Rua Argentina - Jardim América - São Paulo/SP;-23.571526;-46.668903
lopes;REO259052;"2023-10-23 11:48:53.507579";18000000;1900;;;;Rua Clímaco Barbosa - Cambuci - São Paulo/SP;-23.5647823;-46.6166221
lopes;REO609526;"2023-10-23 11:49:06.418966";20000000;3522;;;;Rua Domingos De Morais - Vila Mariana - São Paulo/SP;-23.5918627;-46.6363128
lopes;REO653753;"2023-10-23 11:49:19.267199";20000000;800;4.0;9.0;5.0;Alameda Casa Branca - Jardim América - São Paulo/SP;-23.5701178;-46.6641733
lopes;REO101215;"2023-10-23 11:49:31.349177";17000000;350;;4.0;4.0;Alameda Gabriel Monteiro Da Silva - Jardim América - São Paulo/SP;-23.5667967;-46.6777305
lopes;REO554445;"2023-10-23 11:49:43.606302";34990000;7796;;20.0;142.0;Avenida Das Nações Unidas - Santo Amaro - São Paulo/SP;-23.6372962;-46.7204988
lopes;REO136549;"2023-10-23 14:11:15.899061";15000000;3200;;5.0;40.0;Rua São Bernardino - Anhanguera - São Paulo/SP;-23.5110164;-46.729262
lopes;REO38158;"2023-10-23 14:11:30.082516";15000000;3500;;20.0;50.0;Rua Gustavo Da Silveira - Vila Santa Catarina - São Paulo/SP;-23.6521844;-46.6572691
lopes;REO456516;"2023-10-23 14:11:42.629657";30000000;3547;;8.0;;Rua Conde Do Pinhal - Centro - São Paulo/SP;-23.5530661;-46.6336496
lopes;REO354530;"2023-10-23 14:11:54.694059";15000000;1165;;;100.0;Avenida Giovanni Gronchi - Morumbi - São Paulo/SP;-23.5988287;-46.7207073
lopes;REO660610;"2023-10-23 14:12:07.595140";38000000;3614;;50.0;106.0;Avenida Da Liberdade - Liberdade - São Paulo/SP;-23.5577168;-46.6366963
lopes;REO701334;"2023-10-23 14:12:29.187254";15500000;504;4.0;6.0;4.0;Rua Cojuba - Itaim Bibi - São Paulo/SP;-23.5868405;-46.6845947
lopes;REO719070;"2023-10-23 14:12:57.828051";25900000;1057;4.0;6.0;5.0;Rua Das Jabuticabeiras - Cidade Jardim - São Paulo/SP;-23.5924409;-46.7014733
lopes;REO254376;"2023-10-23 14:13:09.335464";25000000;8730;;16.0;12.0;Rua Doutor Virgílio Do Nascimento - Brás - São Paulo/SP;-23.5300388;-46.6135745
lopes;REO565212;"2023-10-23 14:13:22.021445";17000000;400;;;;Rua Chilon - Vila Olímpia - São Paulo/SP;-23.5938102;-46.6807182
lopes;REO539580;"2023-10-23 14:13:35.400671";17000000;425;;;;Rua Chilon - Vila Olímpia - São Paulo/SP;-23.5938102;-46.6807182
lopes;REO661871;"2023-10-23 14:13:47.838241";25596360;2844;;8.0;28.0;Avenida Maria Coelho Aguiar 215 - Campo Limpo - São Paulo/SP;-23.6485505;-46.732346
lopes;REO86967;"2023-10-23 14:13:59.560366";39448000;4931;;;;Rua Doutor Oscar Monteiro De Barros - Morumbi - São Paulo/SP;-23.6187303;-46.7357444
lopes;REO197016;"2023-10-23 14:14:11.806094";15000000;3676;;6.0;;Rua Gustavo Da Silveira - Vila Santa Catarina - São Paulo/SP;-23.6521844;-46.6572691
lopes;REO350051;"2023-10-23 14:14:28.605162";17500000;387;4.0;5.0;8.0;Rua Noruega - Jardim Europa - São Paulo/SP;-23.5780211;-46.6769897
lopes;REO695980;"2023-10-23 14:14:41.964659";16000000;1600;;23.0;12.0;Rua Cônego Eugênio Leite - Pinheiros - São Paulo/SP;-23.5651424;-46.679746
lopes;REO299212;"2023-10-23 14:14:55.844255";15000000;484;4.0;6.0;6.0;Rua Teixeira Pinto - Vila Nova Conceição - São Paulo/SP;-23.583268;-46.6644907
lopes;REO682587;"2023-10-23 14:15:11.449027";18500000;813;4.0;2.0;6.0;Avenida Das Nações Unidas - Alto De Pinheiros - São Paulo/SP;-23.5514188;-46.7211741
lopes;REO627503;"2023-10-23 14:15:24.986259";25593500;2844;;24.0;28.0;Avenida Maria Coelho Aguiar - Campo Limpo - São Paulo/SP;-23.6508838;-46.7336464
lopes;REO627508;"2023-10-23 14:15:38.858362";25598000;2844;;24.0;28.0;Avenida Maria Coelho Aguiar - Campo Limpo - São Paulo/SP;-23.6508838;-46.7336464
lopes;REO627502;"2023-10-23 14:15:53.258695";25596360;2844;;24.0;28.0;Avenida Maria Coelho Aguiar - Campo Limpo - São Paulo/SP;-23.6508838;-46.7336464
lopes;REO604697;"2023-10-23 14:16:07.783176";25596360;2844;;24.0;28.0;Avenida Maria Coelho Aguiar - Campo Limpo - São Paulo/SP;-23.6508838;-46.7336464
lopes;REO159937;"2023-10-23 14:16:21.234051";200000000;72000;;1.0;1.0;Avenida Jaguaré - Jaguaré - São Paulo/SP;-23.5515605;-46.7408069
lopes;REO22872;"2023-10-23 14:16:35.152757";55000000;2000;;70.0;64.0;Avenida Sargento Lourival Alves De Souza - Jardim Marajoara - São Paulo/SP;-23.6618573;-46.6891949
lopes;REO134259;"2023-10-23 14:16:49.997390";28000000;2890;;;;Rua Coronel Xavier De Toledo - Centro - São Paulo/SP;-23.5462044;-46.6389876
lopes;REO536738;"2023-10-23 14:17:02.550912";18000000;2000;;20.0;20.0;Rua Silva Bueno - Ipiranga - São Paulo/SP;-23.5902461;-46.6014231
lopes;REO178902;"2023-10-23 14:17:14.323270";17000000;5350;;;;Rua Antonieta Leitão - Freguesia Do Ó - São Paulo/SP;-23.5025203;-46.6964575
lopes;REO18412;"2023-10-23 14:17:27.561869";20000000;2927;;;50.0;Alameda Barão De Limeira - Barra Funda - São Paulo/SP;-23.531899;-46.6496888
lopes;REO374540;"2023-10-23 14:17:44.340966";59900000;3296;;6.0;60.0;Rua Fernando De Albuquerque - Bela Vista - São Paulo/SP;-23.560576;-46.6537039
lopes;REO614388;"2023-10-23 14:17:57.360128";35100000;2674;;60.0;12.0;Rua Da Consolação - Bela Vista - São Paulo/SP;-23.5493292;-46.6526864
lopes;REO171963;"2023-10-23 14:18:28.359933";16000000;2000;;8.0;30.0;Rua Inhaúma - Barra Funda - São Paulo/SP;-23.5191125;-46.6620711
lopes;REO508941;"2023-10-23 14:18:40.835362";16000000;903;;;;Avenida Engenheiro Luiz Carlos Berrini - Brooklin - São Paulo/SP;-23.604648;-46.6927587
lopes;REO151903;"2023-10-23 14:18:55.162988";15200000;640;4.0;6.0;4.0;Rua Pacheco Miranda - Jardim Paulista - São Paulo/SP;-23.5848568;-46.6673392
lopes;REO495819;"2023-10-23 14:19:08.494729";21000000;3300;;25.0;90.0;Rua Victório Primon - Limão - São Paulo/SP;-23.508507;-46.6715577
lopes;REO186696;"2023-10-23 14:19:23.774702";17000000;1800;;;;Rua Conselheiro Ribas - Lapa - São Paulo/SP;-23.5149144;-46.7206348
lopes;REO126894;"2023-10-23 14:19:35.940052";30000000;3000;;;;Avenida João Dias - Santo Amaro - São Paulo/SP;-23.6453226;-46.7135007
lopes;REO821456;"2023-10-23 14:19:49.963205";15500000;360;4.0;5.0;4.0;Rua Afonso Braz - Vila Nova Conceição - São Paulo/SP;-23.595506;-46.6684607
lopes;REO837146;"2023-10-23 14:20:02.814106";38600000;800;4.0;6.0;4.0;Rua Escobar Ortiz - Vila Nova Conceição - São Paulo/SP;-23.5924069;-46.6668335
lopes;REO191654;"2023-10-23 14:20:16.650657";15000000;335;3.0;5.0;4.0;Avenida Juriti - Moema - São Paulo/SP;-23.5999905;-46.6642658
lopes;REO797684;"2023-10-23 14:20:30.063572";15000000;385;4.0;5.0;5.0;Rua Domingos Fernandes - Vila Nova Conceição - São Paulo/SP;-23.5922578;-46.6689613
lopes;REO94660;"2023-10-23 14:20:43.555221";16999000;462;4.0;6.0;7.0;Rua Camargo Cabral - Itaim Bibi - São Paulo/SP;-23.5841978;-46.6866383
lopes;REO741844;"2023-10-23 14:20:57.045385";18000000;469;5.0;8.0;6.0;Rua Canário - Moema - São Paulo/SP;-23.6016952;-46.6673462
lopes;REO821992;"2023-10-23 14:21:18.653450";26500000;653;4.0;7.0;6.0;Rua Inhambú - Moema - São Paulo/SP;-23.6025538;-46.6696475
lopes;REO826878;"2023-10-23 14:21:33.720749";15500000;350;4.0;4.0;4.0;Rua Tabapuã - Itaim Bibi - São Paulo/SP;-23.5839215;-46.6787355
lopes;REO263610;"2023-10-23 14:21:46.467614";20000000;531;5.0;7.0;7.0;Avenida Divino Salvador - Moema - São Paulo/SP;-23.6067568;-46.6575805
lopes;REO772962;"2023-10-23 14:22:01.189550";15000000;322;3.0;6.0;5.0;Rua Elvira Ferraz - Vila Olímpia - São Paulo/SP;-23.5945242;-46.680202
lopes;REO688861;"2023-10-23 14:22:15.661081";35000000;990;6.0;9.0;6.0;Rua Leopoldo Couto De Magalhães Júnior - Itaim Bibi - São Paulo/SP;-23.5882415;-46.680574
lopes;REO605003;"2023-10-23 14:22:30.051406";24000000;15692;;;;Rodovia Rodovia Raposo Tavares - Butantã - São Paulo/SP;-23.5757292;-46.7177973
lopes;REO730427;"2023-10-23 14:22:44.051464";21500000;580;4.0;6.0;6.0;Rua Do Livramento - Ibirapuera - São Paulo/SP;-23.5795335;-46.652537
lopes;REO246985;"2023-10-23 14:23:00.497824";17000000;350;3.0;5.0;5.0;Rua Doutor Melo Alves - Jardim América - São Paulo/SP;-23.5629864;-46.6725624
lopes;REO760317;"2023-10-23 14:23:14.557648";17280000;288;4.0;4.0;4.0;Rua Pedroso Alvarenga - Itaim Bibi - São Paulo/SP;-23.5817588;-46.6782307
lopes;REO335477;"2023-10-23 14:23:32.615584";17000000;307;4.0;6.0;5.0;Rua Afonso Braz - Vila Nova Conceição - São Paulo/SP;-23.595506;-46.6684607
lopes;REO142953;"2023-10-23 14:23:50.451119";37500000;584;5.0;7.0;6.0;Rua Frederic Chopin - Jardim Europa - São Paulo/SP;-23.5838842;-46.6881954
lopes;REO780571;"2023-10-23 14:24:23.019234";16000000;385;4.0;6.0;6.0;Rua Ministro Gabriel De Rezende Passos - Moema - São Paulo/SP;-23.5997152;-46.662903
lopes;REO837146;"2023-10-23 14:24:36.547382";38600000;800;4.0;6.0;4.0;Rua Escobar Ortiz - Vila Nova Conceição - São Paulo/SP;-23.5924069;-46.6668335
lopes;REO335477;"2023-10-23 14:24:50.292906";17000000;307;4.0;6.0;5.0;Rua Afonso Braz - Vila Nova Conceição - São Paulo/SP;-23.595506;-46.6684607
lopes;REO760317;"2023-10-23 14:25:02.737219";17280000;288;4.0;4.0;4.0;Rua Pedroso Alvarenga - Itaim Bibi - São Paulo/SP;-23.5817588;-46.6782307
lopes;REO756827;"2023-10-23 14:25:18.333057";39225000;711;5.0;1.0;5.0;Rua Bueno Brandão - Vila Nova Conceição - São Paulo/SP;-23.5908106;-46.670515
lopes;REO804239;"2023-10-23 14:25:33.345373";22470000;750;4.0;7.0;4.0;Rua José Maria Lisboa - Jardim América - São Paulo/SP;-23.563669;-46.6632292
lopes;REO756838;"2023-10-23 14:25:49.382029";27788000;500;5.0;1.0;5.0;Rua Bueno Brandão - Vila Nova Conceição - São Paulo/SP;-23.5908106;-46.670515
lopes;REO756832;"2023-10-23 14:26:03.104701";27480000;500;5.0;1.0;5.0;Rua Bueno Brandão - Vila Nova Conceição - São Paulo/SP;-23.5908106;-46.670515
lopes;REO757991;"2023-10-23 14:26:21.315038";34880000;500;5.0;2.0;5.0;Rua Bueno Brandão - Vila Nova Conceição - São Paulo/SP;-23.5908106;-46.670515
lopes;REO847218;"2023-10-23 14:28:03.510085";17900000;556;4.0;6.0;7.0;Rua Leopoldo Couto De Magalhães Júnior - Itaim Bibi - São Paulo/SP;-23.5882415;-46.680574
lopes;REO832665;"2023-10-23 14:28:18.339470";26500000;500;4.0;6.0;6.0;Rua Curitiba - Paraíso - São Paulo/SP;-23.5812737;-46.6541037
lopes;REO62568;"2023-10-23 14:28:31.826487";20600000;565;4.0;6.0;9.0;Rua Jacques Félix - Vila Nova Conceição - São Paulo/SP;-23.5917212;-46.6713047
lopes;REO344529;"2023-10-23 14:28:50.970518";31800000;528;4.0;3.0;8.0;Rua Inhambú - Vila Nova Conceição - São Paulo/SP;-23.5975462;-46.665124
lopes;REO14915;"2023-10-23 14:29:06.393451";16000000;827;6.0;8.0;6.0;Rua Joaquim Cândido De Azevedo Marques - Real Parque - São Paulo/SP;-23.6089457;-46.7105884
lopes;REO577794;"2023-10-23 14:29:20.580994";32000000;14490;;;400.0;Rua Da Consolação - Bela Vista - São Paulo/SP;-23.5493292;-46.6526864
lopes;REO7638;"2023-10-23 14:29:35.311256";25000000;3041;;10.0;50.0;Avenida Condessa Elisabeth De Robiano - Tatuapé - São Paulo/SP;-23.5270265;-46.5728461
lopes;REO74259;"2023-10-23 14:29:51.037949";30000000;1152;;;;Rua Doutor Cândido Espinheira - Perdizes - São Paulo/SP;-23.5328946;-46.6645134
lopes;REO102097;"2023-10-23 14:30:05.572758";48336000;4560;;;;Rua Tome Portes - Brooklin - São Paulo/SP;-23.6350282;-46.677008
lopes;REO113150;"2023-10-23 14:30:20.126370";34000000;501;5.0;5.0;6.0;Rua Seridó - Jardim Europa - São Paulo/SP;-23.5829305;-46.6898405
lopes;REO594993;"2023-10-23 14:30:34.895434";45000000;4800;;70.0;64.0;Avenida Sargento Lourival Alves De Souza - Jardim Marajoara - São Paulo/SP;-23.6618573;-46.6891949
lopes;REO566269;"2023-10-23 14:30:47.028672";19500000;423;4.0;8.0;6.0;Rua Campo Verde - Jardim Europa - São Paulo/SP;-23.5757876;-46.6912929
lopes;REO878998;"2023-10-23 14:30:59.784758";25596360;2844;;19.0;28.0;Avenida Maria Coelho Aguiar - Campo Limpo - São Paulo/SP;-23.6508838;-46.7336464
lopes;REO16497;"2023-10-23 14:31:14.597618";15000000;730;4.0;7.0;8.0;Rua Antônio De Gouveia Giudice - Alto De Pinheiros - São Paulo/SP;-23.5504417;-46.7109143
lopes;REO302014;"2023-10-23 14:31:45.662538";15000000;1100;4.0;6.0;6.0;Rua Visconde De Porto Seguro - Chácara Flora - São Paulo/SP;-23.6424647;-46.6854624
lopes;REO306514;"2023-10-23 14:31:58.773716";16000000;568;4.0;6.0;5.0;Rua Do Livramento - Ibirapuera - São Paulo/SP;-23.5795335;-46.652537
lopes;REO97356;"2023-10-23 14:32:14.654159";30000000;731;4.0;7.0;7.0;Rua Áustria - Jardim Europa - São Paulo/SP;-23.5737733;-46.6799195
lopes;REO878998;"2023-10-23 14:32:28.084422";25596360;2844;;19.0;28.0;Avenida Maria Coelho Aguiar - Campo Limpo - São Paulo/SP;-23.6508838;-46.7336464
lopes;REO772139;"2023-10-23 14:32:43.710355";15200000;322;3.0;6.0;5.0;Rua Elvira Ferraz - Vila Olímpia - São Paulo/SP;-23.5945242;-46.680202
lopes;REO16497;"2023-10-23 14:32:57.361646";15000000;730;4.0;7.0;8.0;Rua Antônio De Gouveia Giudice - Alto De Pinheiros - São Paulo/SP;-23.5504417;-46.7109143
lopes;REO743580;"2023-10-23 14:33:13.570194";20000000;494;3.0;5.0;7.0;Rua Leopoldo Couto De Magalhães Júnior - Itaim Bibi - São Paulo/SP;-23.5882415;-46.680574
lopes;REO248162;"2023-10-23 14:33:41.314885";37500000;570;4.0;3.0;6.0;Rua Leopoldo Couto De Magalhães Júnior - Itaim Bibi - São Paulo/SP;-23.5882415;-46.680574
lopes;REO884898;"2023-10-23 14:33:55.941224";25000000;1600;6.0;10.0;10.0;Rua Visconde De Porto Seguro - Chácara Flora - São Paulo/SP;-23.6424647;-46.6854624
lopes;REO710251;"2023-10-23 14:34:10.090736";15000000;760;;7.0;10.0;Rua Campos Bicudo - Jardim Europa - São Paulo/SP;-23.5811017;-46.6824191
lopes;REO11459;"2023-10-23 14:34:23.683991";19500000;401;3.0;7.0;5.0;Rua Inajaroba - Vila Nova Conceição - São Paulo/SP;-23.5967811;-46.6657548
lopes;REO9544;"2023-10-23 14:34:37.697827";24900000;584;5.0;5.0;9.0;Avenida Quarto Centenário - Ibirapuera - São Paulo/SP;-23.5926889;-46.6590913
lopes;REO566269;"2023-10-23 14:34:52.839795";19500000;423;4.0;8.0;6.0;Rua Campo Verde - Jardim Europa - São Paulo/SP;-23.5757876;-46.6912929
lopes;REO33788;"2023-10-23 14:35:07.426934";27000000;800;4.0;;8.0;Rua General Mena Barreto - Jardim Paulista - São Paulo/SP;-23.5806123;-46.6666133
lopes;REO680538;"2023-10-23 14:35:22.243201";25596360;2844;;19.0;28.0;Avenida Maria Coelho Aguiar - Campo Limpo - São Paulo/SP;-23.6508838;-46.7336464
lopes;REO885257;"2023-10-23 14:35:35.489919";15000000;850;5.0;8.0;10.0;Rua Visconde De Porto Seguro - Chácara Flora - São Paulo/SP;-23.6424647;-46.6854624
lopes;REO680442;"2023-10-23 14:35:49.411439";25500000;465;4.0;6.0;5.0;Rua Professor Artur Ramos - Jardim Europa - São Paulo/SP;-23.58278;-46.6876421
lopes;REO823694;"2023-10-23 14:36:07.080625";15000000;385;2.0;5.0;6.0;Rua Henrique Martins - Jardim Paulista - São Paulo/SP;-23.5831961;-46.666563
lopes;REO867962;"2023-10-23 14:36:22.309661";20000000;285;3.0;4.0;4.0;Rua Pedroso Alvarenga - Itaim Bibi - São Paulo/SP;-23.5817588;-46.6782307
lopes;REO335878;"2023-10-23 14:36:38.147299";37000000;753;5.0;7.0;8.0;Rua Haddock Lobo - Jardim América - São Paulo/SP;-23.563774;-46.6678068
lopes;REO27970;"2023-10-23 14:36:53.157866";18000000;850;5.0;10.0;7.0;Rua Veneza - Jardim Paulista - São Paulo/SP;-23.5771026;-46.6638119
lopes;REO654286;"2023-10-23 14:37:08.248800";15500000;497;4.0;6.0;5.0;Rua Brás Cardoso - Vila Nova Conceição - São Paulo/SP;-23.5932214;-46.6690985
lopes;REO681704;"2023-10-23 14:37:22.893240";15750000;609;4.0;6.0;5.0;Rua Padre João Manuel - Jardim América - São Paulo/SP;-23.5654355;-46.6659449
vivareal;apartamento-4-quartos-vila-mariana-zona-sul-sao-paulo-com-garagem-632m2-venda-RS21000000-id-2646426845;"2023-11-01 08:43:44.283473";21000000;632;4.0;;7.0;Rua do Livramento, 250 - Vila Mariana, São Paulo - SP;-23.5796228;-46.65304159999999
vivareal;kalea-jardins-2641612855;"2023-11-01 08:44:08.204749";15371560;368;4.0;;45.0;Rua da Consolação, 3288 - Jardins, São Paulo - SP;-23.5609544;-46.6686448
vivareal;apartamento-3-quartos-itaim-bibi-zona-sul-sao-paulo-com-garagem-323m2-venda-RS15200000-id-2657133422;"2023-11-01 08:44:31.765062";15200000;323;3.0;;5.0;Rua Elvira Ferraz - Itaim Bibi, São Paulo - SP;-23.5946811;-46.6807753
vivareal;ponto-comercial-jardim-america-zona-sul-sao-paulo-com-garagem-720m2-venda-RS15000000-id-2643903678;"2023-11-01 08:45:25.325637";15000000;720;;;12.0;Rua Oscar Freire, 400 - Jardim América, São Paulo - SP;-23.5661479;-46.6655407
vivareal;casa-3-quartos-jardim-america-zona-sul-sao-paulo-com-garagem-850m2-venda-RS29900000-id-2630547967;"2023-11-01 08:45:48.995133";29900000;850;3.0;;10.0;Rua Argentina - Jardim América, São Paulo - SP;-23.571526;-46.668903
vivareal;lote-terreno-alto-da-boa-vista-zona-sul-sao-paulo-com-garagem-1927m2-venda-RS29000000-id-2664661515;"2023-11-01 08:46:13.199743";29000000;1927;;;30.0;Avenida Adolfo Pinheiro, 893 - Alto Da Boa Vista, São Paulo - SP;-23.6450919;-46.7011174
vivareal;apartamento-4-quartos-jardim-america-zona-sul-sao-paulo-com-garagem-347m2-venda-RS16800000-id-2653354716;"2023-11-01 08:46:39.546388";16800000;347;4.0;4.0;5.0;Rua Tatuí - Jardim América, São Paulo - SP;-23.5664308;-46.6616051
vivareal;fazenda---sitio-vila-granada-zona-leste-sao-paulo-4961000m2-venda-RS522750000-id-2644946896;"2023-11-01 08:47:33.707401";522750000;4961000;;;;Rua Maestro José Tescari, 111 - Vila Granada, São Paulo - SP;-23.5241999;-46.5135333
vivareal;bueno-brandao-2655278835;"2023-11-01 08:47:57.609251";27500000;500;5.0;;45.0;Rua Bueno Brandão, 257 - Vila Nova Conceição, São Paulo - SP;-23.5909651;-46.6703553
vivareal;sala-comercial-itaim-bibi-zona-sul-sao-paulo-com-garagem-600m2-venda-RS20000000-id-2635969864;"2023-11-01 08:48:21.980257";20000000;600;;10.0;20.0;Rua Iguatemi, 151 - Itaim Bibi, São Paulo - SP;-23.5852587;-46.68227630000001
vivareal;cobertura-5-quartos-tatuape-zona-leste-sao-paulo-com-garagem-594m2-venda-RS17500000-id-2549582969;"2023-11-01 08:48:45.936492";17500000;594;5.0;;8.0;Rua Itapeti, 141 - Tatuapé, São Paulo - SP;-23.5515119;-46.5697949
vivareal;cobertura-4-quartos-jardim-guedala-zona-sul-sao-paulo-com-garagem-1300m2-venda-RS48000000-id-2625778799;"2023-11-01 08:49:09.482142";48000000;1300;4.0;;10.0;Rua Joaquim Macedo, 135 - Jardim Guedala, São Paulo - SP;-23.5897114;-46.7031745
vivareal;cobertura-5-quartos-tatuape-zona-leste-sao-paulo-com-garagem-593m2-venda-RS17500000-id-2665210511;"2023-11-01 08:49:36.009706";17500000;593;5.0;;8.0;Rua Itapeti, 141 - Tatuapé, São Paulo - SP;-23.5515119;-46.5697949
vivareal;apartamento-3-quartos-jardim-europa-zona-oeste-sao-paulo-com-garagem-456m2-venda-RS27500000-id-2656743980;"2023-11-01 08:49:59.600635";27500000;456;3.0;;6.0;Rua Frederic Chopin, 240 - Jardim Europa, São Paulo - SP;-23.5844856;-46.6891366
vivareal;apartamento-4-quartos-paraiso-zona-sul-sao-paulo-900m2-venda-RS24000000-id-2530987215;"2023-11-01 08:50:23.544837";24000000;900;4.0;;;Rua Curitiba, 31 - Paraíso, São Paulo - SP;-23.5796022;-46.6540143
vivareal;mobile-323-2660122504;"2023-11-01 08:50:47.037707";1400000.0;1002500;;1.0;1.0;Rua Pereira Leite, 323 - Sumarezinho, São Paulo - SP;-23.5437347;-46.6985885
vivareal;apartamento-4-quartos-jardim-europa-zona-oeste-sao-paulo-com-garagem-350m2-venda-RS22500000-id-2665343053;"2023-11-01 08:51:10.583626";22500000;350;4.0;;5.0;Rua Tucumã - Jardim Europa, São Paulo - SP;-23.5810154;-46.6881645
vivareal;predio-comercial-bras-zona-leste-sao-paulo-com-garagem-9313m2-venda-RS27000000-id-2566678738;"2023-11-01 08:51:34.229098";27000000;9313;;6.0;72.0;Rua Doutor Virgílio do Nascimento - Brás, São Paulo - SP;-23.5300388;-46.6135745
vivareal;galpao-deposito-armazem-jardim-santa-cruz-zona-sul-sao-paulo-21160m2-venda-RS70000000-id-2631225775;"2023-11-01 08:51:57.925316";70000000;21160;;;;Jardim Santa Cruz, São Paulo - SP;-23.4612951;-46.6675163
vivareal;lote-terreno-jardim-analia-franco-zona-leste-sao-paulo-19070m2-venda-RS293678000-id-2598943696;"2023-11-01 08:52:24.490626";293678000;19070;;;;Rua Antônio Alves Barril - Jardim Anália Franco, São Paulo - SP;-23.5602622;-46.5615307
vivareal;galpao-deposito-armazem-parque-sao-domingos-zona-oeste-sao-paulo-7000m2-venda-RS62000000-id-2516920431;"2023-11-01 08:52:48.180348";62000000;7000;;1.0;;Parque São Domingos, São Paulo - SP;-23.5019685;-46.7362631
vivareal;predio-comercial-jardim-marajoara-zona-sul-sao-paulo-com-garagem-4000m2-venda-RS53000000-id-2541577176;"2023-11-01 08:53:11.840644";53000000;4000;;32.0;50.0;Avenida Sargento Lourival Alves de Souza - Jardim Marajoara, São Paulo - SP;-23.6618573;-46.6891949
vivareal;lancamento-2-dorm-brooklin-2643146028;"2023-11-01 08:54:08.990040";;70;12.0;;0.0;Rua Enxovia, 423 - Vila Sao Francisco (Zona Sul), São Paulo - SP;-23.6280472;-46.7003678
vivareal;galpao-deposito-armazem-cambuci-zona-sul-sao-paulo-1200m2-venda-RS20000000-id-2456724590;"2023-11-01 08:55:03.580095";20000000;1200;;;0.0;Cambuci, São Paulo - SP;-23.5644729;-46.6211126
vivareal;apartamento-4-quartos-itaim-bibi-zona-sul-sao-paulo-com-garagem-424m2-venda-RS21774100-id-2658953710;"2023-11-01 08:55:28.254075";21774100;424;4.0;;5.0;Rua Lopes Neto - Itaim Bibi, São Paulo - SP;-23.5874951;-46.6833485
vivareal;predio-comercial-10-quartos-pinheiros-zona-oeste-sao-paulo-com-garagem-1276m2-venda-RS27000000-id-2504799274;"2023-11-01 08:56:22.192116";27000000;1276;10.0;3.0;3.0;Rua Oscar Freire, 2372 - Pinheiros, São Paulo - SP;-23.5525461;-46.6772881
vivareal;cobertura-5-quartos-moema-zona-sul-sao-paulo-com-garagem-421m2-venda-RS19999956-id-2665756452;"2023-11-01 08:56:47.230666";19999956;421;5.0;;5.0;Avenida Divino Salvador, 01 - Moema, São Paulo - SP;-23.6040009;-46.6610082
vivareal;casa-4-quartos-vila-nova-conceicao-zona-sul-sao-paulo-com-garagem-750m2-venda-RS18050000-id-2513290580;"2023-11-01 08:57:11.428478";18050000;750;4.0;5.0;6.0;Rua Bastos Pereira - Vila Nova Conceição, São Paulo - SP;-23.5881474;-46.6686506
vivareal;apartamento-4-quartos-jardim-europa-zona-oeste-sao-paulo-com-garagem-511m2-venda-RS32999000-id-2600531156;"2023-11-01 08:57:35.831177";32999000;511;4.0;;6.0;Rua Seridó, 106 - Jardim Europa, São Paulo - SP;-23.5833166;-46.69026940000001
vivareal;figueira-leopoldo-2571028449;"2023-11-01 08:58:59.881658";;355;4.0;;4.0;Rua Leopoldo Couto Magalhães Júnior, 1142 - Itaim Bibi, São Paulo - SP;-23.588992;-46.6836108
vivareal;cobertura-4-quartos-vila-gomes-cardim-zona-leste-sao-paulo-com-garagem-593m2-venda-RS17500000-id-2650633161;"2023-11-01 08:59:23.398526";17500000;593;4.0;7.0;8.0;Rua Itapeti, 141 - Vila Gomes Cardim, São Paulo - SP;-23.5515119;-46.5697949
vivareal;casa-de-condominio-3-quartos-alto-de-pinheiros-zona-oeste-sao-paulo-com-garagem-1200m2-venda-RS25000000-id-2617208744;"2023-11-01 08:59:46.925023";25000000;1200;3.0;;6.0;Rua Aramanaí - Alto de Pinheiros, São Paulo - SP;-23.5458952;-46.7068632
vivareal;lote-terreno-indianopolis-zona-sul-sao-paulo-com-garagem-1160m2-venda-RS32000000-id-2636704470;"2023-11-01 09:00:10.697684";32000000;1160;;;5.0;Avenida Cotovia, 1 - Indianópolis, São Paulo - SP;-23.6040299;-46.674729
vivareal;sala-comercial-centro-centro-sao-paulo-540m2-venda-RS580000000-id-2475445695;"2023-11-01 09:00:34.562277";580000000;540;;4.0;0.0;Rua Antônio de Godói, 88 - Centro, São Paulo - SP;-23.5421318;-46.6370877
vivareal;apartamento-4-quartos-jardim-europa-zona-oeste-sao-paulo-com-garagem-391m2-venda-RS16000000-id-2447977612;"2023-11-01 09:00:58.452067";16000000;391;4.0;;5.0;Rua Emanuel Kant, 170 - Jardim Europa, São Paulo - SP;-23.5811917;-46.681087
vivareal;apartamento-4-quartos-ibirapuera-zona-sul-sao-paulo-com-garagem-632m2-venda-RS24900000-id-2561495501;"2023-11-01 09:01:21.890583";24900000;632;4.0;;7.0;Rua do Livramento - Ibirapuera, São Paulo - SP;-23.5795335;-46.652537
vivareal;apartamento-5-quartos-vila-nova-conceicao-zona-sul-sao-paulo-com-garagem-565m2-venda-RS20600000-id-2638115912;"2023-11-01 09:02:43.098038";20600000;565;5.0;4.0;9.0;Rua Jacques Félix - Vila Nova Conceição, São Paulo - SP;-23.5917212;-46.6713047
vivareal;figueira-leopoldo-2571028449;"2023-11-01 09:03:06.606319";;355;4.0;;4.0;Rua Leopoldo Couto Magalhães Júnior, 1142 - Itaim Bibi, São Paulo - SP;-23.588992;-46.6836108
vivareal;lote-terreno-itaim-bibi-zona-sul-sao-paulo-380m2-venda-RS15999956-id-2665844953;"2023-11-01 09:03:30.385192";15999956;380;;;0.0;Avenida Brigadeiro Faria Lima, 01 - Itaim Bibi, São Paulo - SP;-23.5595395;-46.6964069
vivareal;predio-comercial-consolacao-centro-sao-paulo-com-garagem-4523m2-venda-RS55000000-id-2570958730;"2023-11-01 09:03:56.818779";55000000;4523;;28.0;50.0;Rua Fernando de Albuquerque - Consolação, São Paulo - SP;-23.5538066;-46.657958
vivareal;galpao-deposito-armazem-lapa-zona-oeste-sao-paulo-3390m2-venda-RS24500000-id-2633571879;"2023-11-01 09:40:08.594299";24500000;3390;;10.0;0.0;Rua Padre Penteado de Oliveira - Lapa, São Paulo - SP;-23.5109683;-46.6882027
vivareal;fazenda---sitio-barra-funda-zona-oeste-sao-paulo-500m2-venda-RS18000000-id-2664969371;"2023-11-01 09:40:33.384244";18000000;500;;;0.0;Barra Funda, São Paulo - SP;-23.5291923;-46.6609986
vivareal;imovel-comercial-morumbi-zona-sul-sao-paulo-com-garagem-1954m2-venda-RS17998710-id-2479680416;"2023-11-01 09:40:58.058764";17998710;1954;;10.0;17.0;Morumbi, São Paulo - SP;-23.5978856;-46.7201808
vivareal;lote-terreno-vila-suzana-zona-oeste-sao-paulo-2480m2-venda-RS21206280-id-2643528998;"2023-11-01 09:42:21.791465";21206280;2480;;;;Rua Doutor Oscar Monteiro de Barros - Vila Suzana, São Paulo - SP;-23.6187303;-46.7357444
vivareal;heritage-itaim-bibi-2570657045;"2023-11-01 09:42:45.428873";;570;4.0;;6.0;Rua Leopoldo Couto Magalhães Júnior, 1200 - Itaim Bibi, São Paulo - SP;-23.5891211;-46.6840991
vivareal;apartamento-4-quartos-campo-belo-zona-sul-sao-paulo-com-garagem-370m2-venda-RS17400000-id-2663023557;"2023-11-01 09:43:08.932459";17400000;370;4.0;;5.0;Rua Conde de Porto Alegre - Campo Belo, São Paulo - SP;-23.6228659;-46.6742693
vivareal;sala-comercial-jardins-zona-oeste-sao-paulo-com-garagem-524m2-venda-RS16495000-id-2553611229;"2023-11-01 09:43:32.621225";16495000;524;;8.0;12.0;Rua José Maria Lisboa, 747 - Jardins, São Paulo - SP;-23.567505;-46.6589703
vivareal;imovel-comercial-barra-funda-zona-oeste-sao-paulo-com-garagem-2737m2-venda-RS21000000-id-2590218594;"2023-11-01 09:44:29.451836";21000000;2737;;11.0;14.0;Rua Rubens Meireles - Barra Funda, São Paulo - SP;-23.5182905;-46.6655251
vivareal;apartamento-5-quartos-jardim-europa-zona-oeste-sao-paulo-com-garagem-429m2-venda-RS20000000-id-2651408516;"2023-11-01 09:44:53.255188";20000000;429;5.0;;2.0;Jardim Europa, São Paulo - SP;-23.5773019;-46.6802279
vivareal;ponto-comercial-pinheiros-zona-oeste-sao-paulo-com-garagem-700m2-venda-RS26450000-id-2649623051;"2023-11-01 09:45:16.780232";26450000;700;;5.0;2.0;Rua Alves Guimarães - Pinheiros, São Paulo - SP;-23.5556837;-46.6782927
vivareal;apartamento-4-quartos-indianopolis-zona-sul-sao-paulo-com-garagem-479m2-venda-RS17400000-id-2661523020;"2023-11-01 09:46:10.731294";17400000;479;4.0;;5.0;Avenida Sabiá - Indianópolis, São Paulo - SP;-23.6004324;-46.6654618
vivareal;predio-comercial-moema-zona-sul-sao-paulo-com-garagem-1159m2-venda-RS15000000-id-2532749083;"2023-11-01 09:46:34.150670";15000000;1159;;8.0;3.0;Avenida Cotovia, 489 - Moema, São Paulo - SP;-23.6067864;-46.6712575
vivareal;cobertura-2-quartos-cidade-jardim-zona-sul-sao-paulo-com-garagem-593m2-venda-RS35000000-id-2619225928;"2023-11-01 09:46:57.566359";35000000;593;2.0;;6.0;Rua Armando Petrella - Cidade Jardim, São Paulo - SP;-23.5992112;-46.6996289
vivareal;apartamento-4-quartos-moema-zona-sul-sao-paulo-com-garagem-375m2-venda-RS15683000-id-2645239356;"2023-11-01 09:47:21.022458";15683000;375;4.0;;5.0;Rua Ministro Gabriel de Rezende Passos - Moema, São Paulo - SP;-23.5997152;-46.662903
vivareal;apartamento-4-quartos-vila-nova-conceicao-zona-sul-sao-paulo-com-garagem-398m2-venda-RS17660000-id-2620012121;"2023-11-01 09:47:44.504051";17660000;398;4.0;;5.0;Rua João Lourenço - Vila Nova Conceição, São Paulo - SP;-23.5908758;-46.6677093
vivareal;apartamento-4-quartos-itaim-bibi-zona-sul-sao-paulo-com-garagem-570m2-venda-RS38781924-id-2577729558;"2023-11-01 09:48:08.820886";38781924;570;4.0;;6.0;Rua Leopoldo Couto Magalhães Júnior, 1200 - Itaim Bibi, São Paulo - SP;-23.5891211;-46.6840991
vivareal;apartamento-4-quartos-vila-nova-conceicao-zona-sul-sao-paulo-com-garagem-401m2-venda-RS20500000-id-2619172345;"2023-11-01 09:48:32.931366";20500000;401;4.0;;5.0;Rua Inajaroba, 43 - Vila Nova Conceição, São Paulo - SP;-23.5965644;-46.6660641
vivareal;apartamento-4-quartos-jardim-paulista-zona-sul-sao-paulo-com-garagem-660m2-venda-RS17000000-id-2649009422;"2023-11-01 09:49:26.576716";17000000;660;4.0;;8.0;Alameda Itu, 93 - Jardim Paulista, São Paulo - SP;-23.5670506;-46.6560068
vivareal;apartamento-4-quartos-vila-nova-conceicao-zona-sul-sao-paulo-com-garagem-401m2-venda-RS19020000-id-2550641918;"2023-11-01 09:49:50.058004";19020000;401;4.0;;5.0;Rua Inajaroba, 45 - Vila Nova Conceição, São Paulo - SP;-23.5965777;-46.6660493
vivareal;imovel-comercial-guaianases-zona-leste-sao-paulo-6500m2-venda-RS27000000-id-2589192154;"2023-11-01 09:50:44.087939";27000000;6500;;;0.0;Rua Cruz do Espírito Santo, 989 - Guaianases, São Paulo - SP;-23.5352101;-46.4042086
vivareal;lote-terreno-vila-olimpia-zona-sul-sao-paulo-3000m2-venda-RS60000000-id-2639761431;"2023-11-01 09:51:07.568578";60000000;3000;;;0.0;Rua Casa do Ator - Vila Olímpia, São Paulo - SP;-23.5984516;-46.6798444
vivareal;sala-comercial-barra-funda-zona-oeste-sao-paulo-com-garagem-1066m2-venda-RS15995000-id-2647831164;"2023-11-01 09:51:30.972102";15995000;1066;;12.0;30.0;Avenida Marquês de São Vicente, 182 - Barra Funda, São Paulo - SP;-23.5221181;-46.6614964
vivareal;apartamento-4-quartos-vila-nova-conceicao-zona-sul-sao-paulo-com-garagem-476m2-venda-RS17520000-id-2555734715;"2023-11-01 09:51:54.900425";17520000;476;4.0;;6.0;Rua Inhambú, 95 - Vila Nova Conceição, São Paulo - SP;-23.5972192;-46.6641798
vivareal;casa-de-condominio-4-quartos-vila-nova-conceicao-zona-sul-sao-paulo-com-garagem-676m2-venda-RS18138956-id-2665756496;"2023-11-01 09:52:48.779703";18138956;676;4.0;;6.0;Rua Teviot, 01 - Vila Nova Conceição, São Paulo - SP;-23.5877573;-46.669504
vivareal;apartamento-4-quartos-brooklin-zona-sul-sao-paulo-com-garagem-167m2-venda-RS23380000-id-2663052872;"2023-11-01 09:53:43.035966";23380000;167;4.0;;2.0;Rua Ministro Luiz Gallotti, 134 - Brooklin, São Paulo - SP;-23.6216184;-46.6859072
vivareal;casa-6-quartos-vila-nova-conceicao-zona-sul-sao-paulo-com-garagem-870m2-venda-RS17000000-id-2570962487;"2023-11-01 09:54:07.118519";17000000;870;6.0;;4.0;Rua Bastos Pereira - Vila Nova Conceição, São Paulo - SP;-23.5881474;-46.6686506
vivareal;lote-terreno-tremembe-zona-norte-sao-paulo-30000m2-venda-RS21000000-id-2454101701;"2023-11-01 09:54:31.000099";21000000;30000;;;0.0;Tremembé, São Paulo - SP;-23.4598631;-46.62547379999999
vivareal;apartamento-5-quartos-vila-nova-conceicao-zona-sul-sao-paulo-com-garagem-565m2-venda-RS20600000-id-2650791082;"2023-11-01 09:54:54.712985";20600000;565;5.0;;9.0;Vila Nova Conceição, São Paulo - SP;-23.5917828;-46.6727333
vivareal;predio-comercial-moema-zona-sul-sao-paulo-com-garagem-6287m2-venda-RS98000000-id-2567499606;"2023-11-01 09:55:18.515095";98000000;6287;;80.0;90.0;Avenida Rouxinol, 301 - Moema, São Paulo - SP;-23.6022687;-46.67148
vivareal;imovel-comercial-pinheiros-zona-oeste-sao-paulo-com-garagem-1154m2-venda-RS15000000-id-2662814958;"2023-11-01 09:56:12.328163";15000000;1154;;6.0;15.0;Rua Teodoro Sampaio - Pinheiros, São Paulo - SP;-23.5612548;-46.6836709
vivareal;apartamento-5-quartos-jardim-paulista-zona-sul-sao-paulo-com-garagem-695m2-venda-RS15000000-id-2593407883;"2023-11-01 09:56:36.034788";15000000;695;5.0;;4.0;Alameda Itu, 890 - Jardim Paulista, São Paulo - SP;-23.5621795;-46.6613182
vivareal;sala-comercial-vila-olimpia-zona-sul-sao-paulo-com-garagem-291m2-venda-RS35000000-id-2660997896;"2023-11-01 09:57:30.097769";35000000;291;;6.0;6.0;Rua Gomes de Carvalho, 1306 - Vila Olímpia, São Paulo - SP;-23.5966679;-46.6855583
vivareal;predio-comercial-jardim-paulista-zona-sul-sao-paulo-com-garagem-1454m2-venda-RS30400000-id-2662941954;"2023-11-01 09:58:18.127606";30400000;1454;;10.0;22.0;Rua Peixoto Gomide, 1596 - Jardim Paulista, São Paulo - SP;-23.5657714;-46.66238810000001
vivareal;imovel-comercial-pinheiros-zona-oeste-sao-paulo-com-garagem-1154m2-venda-RS15000000-id-2662814958;"2023-11-01 09:58:42.089452";15000000;1154;;6.0;15.0;Rua Teodoro Sampaio - Pinheiros, São Paulo - SP;-23.5612548;-46.6836709
vivareal;casa-5-quartos-vila-nova-conceicao-zona-sul-sao-paulo-com-garagem-750m2-venda-RS17021956-id-2665773833;"2023-11-01 09:59:05.697742";17021956;750;5.0;;6.0;Rua Bastos Pereira, 01 - Vila Nova Conceição, São Paulo - SP;-23.5869357;-46.6713657
vivareal;apartamento-4-quartos-itaim-bibi-zona-sul-sao-paulo-com-garagem-570m2-venda-RS38781924-id-2577729558;"2023-11-01 09:59:29.484188";38781924;570;4.0;;6.0;Rua Leopoldo Couto Magalhães Júnior, 1200 - Itaim Bibi, São Paulo - SP;-23.5891211;-46.6840991
vivareal;galpao-deposito-armazem-aricanduva-zona-leste-sao-paulo-1000m2-venda-RS24000000-id-2554450506;"2023-11-01 09:59:53.097714";24000000;1000;;5.0;0.0;Avenida Aricanduva - Aricanduva, São Paulo - SP;-23.5637105;-46.5088271
vivareal;cobertura-5-quartos-alto-de-pinheiros-zona-oeste-sao-paulo-com-garagem-703m2-venda-RS18616956-id-2665755963;"2023-11-01 10:00:16.687952";18616956;703;5.0;;5.0;Avenida Doutora Ruth Cardoso, 01 - Alto de Pinheiros, São Paulo - SP;-23.5540942;-46.7180068
vivareal;apartamento-5-quartos-vila-nova-conceicao-zona-sul-sao-paulo-com-garagem-500m2-venda-RS22621770-id-2661672978;"2023-11-01 10:01:10.831864";22621770;500;5.0;;6.0;Vila Nova Conceição, São Paulo - SP;-23.5917828;-46.6727333
vivareal;apartamento-5-quartos-vila-nova-conceicao-zona-sul-sao-paulo-com-garagem-500m2-venda-RS17500000-id-2619090897;"2023-11-01 10:01:34.961644";17500000;500;5.0;;5.0;Rua Bueno Brandão, 298 - Vila Nova Conceição, São Paulo - SP;-23.5906782;-46.6704734
vivareal;galpao-deposito-armazem-sacoma-zona-sul-sao-paulo-com-garagem-9800m2-venda-RS45000000-id-2606402577;"2023-11-01 10:02:28.725260";45000000;9800;;10.0;20.0;Rua Imoroti - Sacomã, São Paulo - SP;-23.6200718;-46.5952993
vivareal;sobrado-3-quartos-vila-nova-conceicao-zona-sul-sao-paulo-com-garagem-724m2-venda-RS18900000-id-2622045114;"2023-11-01 10:03:23.114008";18900000;724;3.0;;8.0;Avenida IV Centenário - Vila Nova Conceição, São Paulo - SP;-23.5952214;-46.6645034
vivareal;apartamento-5-quartos-jardim-paulistano-zona-oeste-sao-paulo-com-garagem-826m2-venda-RS57240000-id-2612082203;"2023-11-01 10:04:17.305395";57240000;826;5.0;;9.0;Rua Professor Artur Ramos, 50 - Jardim Paulistano, São Paulo - SP;-23.5812937;-46.6849894
vivareal;lote-terreno-vila-leopoldina-zona-oeste-sao-paulo-1081m2-venda-RS24000000-id-2649725122;"2023-11-01 10:04:41.956421";24000000;1081;;;0.0;Rua Aroaba - Vila Leopoldina, São Paulo - SP;-23.5341759;-46.7314836
vivareal;lote-terreno-parque-novo-mundo-zona-norte-sao-paulo-12035m2-venda-RS30000000-id-2495527521;"2023-11-01 10:05:07.169597";30000000;12035;;;;Rua Soldado Cristóvão Morais Garcia - Parque Novo Mundo, São Paulo - SP;-23.5162445;-46.5642456
vivareal;galpao-deposito-armazem-socorro-zona-sul-sao-paulo-com-garagem-1225m2-venda-RS17500000-id-2624674401;"2023-11-01 10:05:33.247269";17500000;1225;;2.0;7.0;Avenida do Rio Bonito - Socorro, São Paulo - SP;-23.6787036;-46.709018
vivareal;predio-comercial-bras-zona-leste-sao-paulo-com-garagem-9313m2-venda-RS27000000-id-2576832285;"2023-11-01 10:05:57.318726";27000000;9313;;;72.0;Rua Doutor Virgílio do Nascimento, 390 - Brás, São Paulo - SP;-23.5292996;-46.6126824
vivareal;predio-comercial-cerqueira-cesar-centro-sao-paulo-4464m2-venda-RS75000000-id-2556787482;"2023-11-01 10:06:21.094347";75000000;4464;;;;Rua Frei Caneca, 1332 - Cerqueira César, São Paulo - SP;-23.5579023;-46.6583512
vivareal;apartamento-4-quartos-moema-zona-sul-sao-paulo-com-garagem-375m2-venda-RS15416000-id-2647508978;"2023-11-01 10:06:45.507225";15416000;375;4.0;;5.0;Rua Ministro Gabriel de Rezende Passos - Moema, São Paulo - SP;-23.5997152;-46.662903
vivareal;predio-comercial-bom-retiro-centro-sao-paulo-com-garagem-4600m2-venda-RS45000000-id-2644503372;"2023-11-01 10:07:12.369447";45000000;4600;;;70.0;Bom Retiro, São Paulo - SP;-23.5256699;-46.64070599999999
vivareal;apartamento-3-quartos-jardim-europa-zona-oeste-sao-paulo-com-garagem-410m2-venda-RS27499970-id-2664596398;"2023-11-01 10:08:06.178201";27499970;410;3.0;;5.0;Rua Seridó, 106 - Jardim Europa, São Paulo - SP;-23.5833166;-46.69026940000001
vivareal;sala-comercial-vila-olimpia-zona-sul-sao-paulo-com-garagem-650m2-venda-RS15000000-id-2652577274;"2023-11-01 10:08:29.882156";15000000;650;;8.0;18.0;Alameda Vicente Pinzon, 51 - Vila Olímpia, São Paulo - SP;-23.5962323;-46.6863709
vivareal;apartamento-4-quartos-paraiso-zona-sul-sao-paulo-900m2-venda-RS24000000-id-2530987215;"2023-11-01 10:08:53.976830";24000000;900;4.0;;;Rua Curitiba, 31 - Paraíso, São Paulo - SP;-23.5796022;-46.6540143
vivareal;sala-comercial-brooklin-zona-sul-sao-paulo-com-garagem-759m2-venda-RS17000000-id-2658771663;"2023-11-01 10:09:17.641233";17000000;759;;6.0;14.0;Avenida das Nações Unidas, 14171 - Brooklin, São Paulo - SP;-23.6006359;-46.6948741
vivareal;cobertura-4-quartos-ibirapuera-zona-sul-sao-paulo-com-garagem-521m2-venda-RS21000000-id-2633305208;"2023-11-01 10:09:42.320516";21000000;521;4.0;;6.0;Rua Joinville, 50 - Ibirapuera, São Paulo - SP;-23.5790307;-46.6528998
vivareal;galpao-deposito-armazem-cangaiba-zona-leste-sao-paulo-5500m2-venda-RS58000000-id-2490898311;"2023-11-01 10:10:06.209067";58000000;5500;;10.0;0.0;Cangaíba, São Paulo - SP;-23.5050496;-46.5270936
vivareal;cobertura-5-quartos-jardim-america-zona-sul-sao-paulo-com-garagem-820m2-venda-RS45000000-id-2662138474;"2023-11-01 10:11:00.588322";45000000;820;5.0;;7.0;Rua Peixoto Gomide - Jardim América, São Paulo - SP;-23.567703;-46.6640959
vivareal;sobrado-5-quartos-alto-da-boa-vista-zona-sul-sao-paulo-com-garagem-768m2-venda-RS15000000-id-2570957052;"2023-11-01 10:11:24.365179";15000000;768;5.0;10.0;8.0;Rua Teixeira de Freitas - Alto Da Boa Vista, São Paulo - SP;-23.651593;-46.6901915
vivareal;galpao-deposito-armazem-vila-carrao-zona-leste-sao-paulo-com-garagem-2980m2-venda-RS32000000-id-2650618473;"2023-11-01 10:11:48.174219";32000000;2980;;5.0;20.0;Rua Barão de Itamaracá, 1051 - Vila Carrão, São Paulo - SP;-23.5524665;-46.5234254
vivareal;predio-comercial-pari-centro-sao-paulo-com-garagem-9313m2-venda-RS27000000-id-2529822690;"2023-11-01 10:12:42.065718";27000000;9313;;6.0;72.0;Pari, São Paulo - SP;-23.5271138;-46.6114203
vivareal;imovel-comercial-santana-zona-norte-sao-paulo-com-garagem-2754m2-venda-RS18000000-id-2651070069;"2023-11-01 10:13:06.024620";18000000;2754;;2.0;3.0;Rua Doutor Zuquim, 1897 - Santana, São Paulo - SP;-23.4893506;-46.6243066
vivareal;apartamento-4-quartos-jardim-europa-zona-oeste-sao-paulo-com-garagem-550m2-venda-RS16000000-id-2635168202;"2023-11-01 10:13:29.866890";16000000;550;4.0;;4.0;Rua André Fernandes - Jardim Europa, São Paulo - SP;-23.5815755;-46.6816244
vivareal;sala-comercial-bela-vista-centro-sao-paulo-com-garagem-816m2-venda-RS19500000-id-2657408460;"2023-11-01 10:13:53.460922";19500000;816;;;29.0;Avenida Paulista - Bela Vista, São Paulo - SP;-23.5657393;-46.6512379
vivareal;cobertura-4-quartos-moema-zona-sul-sao-paulo-com-garagem-688m2-venda-RS43262000-id-2649919125;"2023-11-01 10:14:17.619983";43262000;688;4.0;;8.0;Rua Ministro Gabriel de Rezende Passos - Moema, São Paulo - SP;-23.5997152;-46.662903
vivareal;sobrado-4-quartos-jardim-america-zona-sul-sao-paulo-com-garagem-850m2-venda-RS29000000-id-2613418065;"2023-11-01 10:14:41.376739";29000000;850;4.0;;10.0;Jardim América, São Paulo - SP;-23.5693707;-46.6719782
vivareal;lote-terreno-itaim-paulista-zona-leste-sao-paulo-12951m2-venda-RS40200000-id-2664624396;"2023-11-01 10:15:35.407787";40200000;12951;;;;Avenida Marechal Tito - Itaim Paulista, São Paulo - SP;-23.4974647;-46.3952561
vivareal;predio-comercial-bras-zona-leste-sao-paulo-8730m2-venda-RS27000000-id-2547380998;"2023-11-01 10:15:59.002281";27000000;8730;;;0.0;Rua Doutor Virgílio do Nascimento - Brás, São Paulo - SP;-23.5300388;-46.6135745
vivareal;imovel-comercial-vila-ribeiro-de-barros-zona-oeste-sao-paulo-com-garagem-6400m2-venda-RS30000000-id-2643273573;"2023-11-01 10:16:22.588368";30000000;6400;;10.0;15.0;Rua Major Paladino, 205 - Vila Ribeiro De Barros, São Paulo - SP;-23.5233306;-46.7393481
vivareal;galpao-deposito-armazem-jardim-marajoara-zona-sul-sao-paulo-5500m2-venda-RS250000000-id-2661165982;"2023-11-01 10:17:10.770861";250000000;5500;;1.0;;Jardim Marajoara, São Paulo - SP;-23.6546524;-46.6838141
vivareal;apartamento-4-quartos-itaim-bibi-zona-sul-sao-paulo-com-garagem-575m2-venda-RS20000000-id-2612923045;"2023-11-01 10:17:34.285108";20000000;575;4.0;;7.0;Avenida Horácio Lafer - Itaim Bibi, São Paulo - SP;-23.5878823;-46.6835767
vivareal;galpao-deposito-armazem-bras-zona-leste-sao-paulo-com-garagem-8730m2-venda-RS27000000-id-2500047809;"2023-11-01 10:17:58.078000";27000000;8730;;12.0;18.0;Rua Doutor Virgílio do Nascimento - Brás, São Paulo - SP;-23.5300388;-46.6135745
